{"type": "FeatureCollection", "features": [{"geometry": {"type": "Point", "coordinates": [8.21537971, 45.11977386]}, "type": "Feature", "id": null, "properties": {"province": "Al", "city": "Camino", "category": "Castelli", "name": "Castello di Camino", "address": "Via al Castello 26"}}, {"geometry": {"type": "Point", "coordinates": [8.41008186, 45.03796387]}, "type": "Feature", "id": null, "properties": {"province": "Al", "city": "Frassinello Monferrato", "category": "Castelli", "name": "Castello Sassone di Lignano (Frassinello Monferrato)", "address": "Strada Comunale di Lignano "}}, {"geometry": {"type": "Point", "coordinates": [8.79832458, 44.75424957]}, "type": "Feature", "id": null, "properties": {"province": "Al", "city": "Novi Ligure", "category": "Castelli", "name": "Torre - Castello di Novi Ligure", "address": "Piazza della Collegiata "}}, {"geometry": {"type": "Point", "coordinates": [8.64691067, 44.67083359]}, "type": "Feature", "id": null, "properties": {"province": "Al", "city": "Rocca Grimalda", "category": "Castelli", "name": "Castello di Rocca Grimalda", "address": "Piazza Senatore Borgatta 2"}}, {"geometry": {"type": "Point", "coordinates": [8.95910835, 44.72977448]}, "type": "Feature", "id": null, "properties": {"province": "Al", "city": "Borghetto di Borbera", "category": "Castelli", "name": "Castello di Torre Ratti (Borghetto Borbera)", "address": "Via Provinciale in Torre Ratti 2"}}, {"geometry": {"type": "Point", "coordinates": [8.88039875, 44.98085022]}, "type": "Feature", "id": null, "properties": {"province": "Al", "city": "Castelnuovo Scrivia", "category": "Castelli", "name": "Castello dei Torriani e Bandello (Castelnuovo Scrivia)", "address": "Via Solferino 2"}}, {"geometry": {"type": "Point", "coordinates": [8.06918335, 45.42022324]}, "type": "Feature", "id": null, "properties": {"province": "Bi", "city": "Roppolo", "category": "Castelli", "name": "Castello di Roppolo", "address": "Via al Castello 2"}}, {"geometry": {"type": "Point", "coordinates": [8.17843628, 44.78929901]}, "type": "Feature", "id": null, "properties": {"province": "At", "city": "Costigliole d'Asti", "category": "Castelli", "name": "Castello di Costigliole d'Asti", "address": "Piazza Vittorio Emanuele II 10"}}, {"geometry": {"type": "Point", "coordinates": [8.09781456, 45.06763077]}, "type": "Feature", "id": null, "properties": {"province": "At", "city": "Montiglio", "category": "Castelli", "name": "Castello di Montiglio", "address": "Piazza Umberto I 5"}}, {"geometry": {"type": "Point", "coordinates": [7.722, 44.549]}, "type": "Feature", "id": null, "properties": {"province": "Cn", "city": "Fossano", "category": "Castelli", "name": "Castello degli Acaja (Fossano)", "address": "Piazza Castello "}}, {"geometry": {"type": "Point", "coordinates": [7.94404793, 44.61071777]}, "type": "Feature", "id": null, "properties": {"province": "Cn", "city": "Castiglione Falletto", "category": "Castelli", "name": "Castello di Castiglione Falletto", "address": "Piazza Castello "}}, {"geometry": {"type": "Point", "coordinates": [8.00357533, 44.10798264]}, "type": "Feature", "id": null, "properties": {"province": "Cn", "city": "Alto", "category": "Castelli", "name": "Castello dei Conti Cepollini (Alto)", "address": "Via del Castello 15"}}, {"geometry": {"type": "Point", "coordinates": [7.94430685, 44.61126328]}, "type": "Feature", "id": null, "properties": {"province": "Cn", "city": "Barolo", "category": "Castelli", "name": "Castello Falletti (Barolo)", "address": "Piazza Falletti "}}, {"geometry": {"type": "Point", "coordinates": [7.99495983, 44.65296936]}, "type": "Feature", "id": null, "properties": {"province": "Cn", "city": "Grinzane Cavour", "category": "Castelli", "name": "Castello di Grinzane Cavour", "address": "Via Castello 5"}}, {"geometry": {"type": "Point", "coordinates": [7.48481941, 44.61133957]}, "type": "Feature", "id": null, "properties": {"province": "Cn", "city": "Manta", "category": "Castelli", "name": "Castello della Manta", "address": " "}}, {"geometry": {"type": "Point", "coordinates": [8.10617065, 44.6287384]}, "type": "Feature", "id": null, "properties": {"province": "Cn", "city": "Mango", "category": "Castelli", "name": "Castello di Mango", "address": "Piazza Castello 19"}}, {"geometry": {"type": "Point", "coordinates": [7.46942472, 44.52714539]}, "type": "Feature", "id": null, "properties": {"province": "Cn", "city": "Busca", "category": "Castelli", "name": "Castello del Roccolo (Busca)", "address": "Strada Romantica "}}, {"geometry": {"type": "Point", "coordinates": [8.00068665, 44.61068726]}, "type": "Feature", "id": null, "properties": {"province": "Cn", "city": "Serralunga d'Alba", "category": "Castelli", "name": "Castello di Serralunga d'Alba", "address": "Via del Castello 1"}}, {"geometry": {"type": "Point", "coordinates": [7.60453701, 44.70591736]}, "type": "Feature", "id": null, "properties": {"province": "Cn", "city": "Monasterolo di Savigliano", "category": "Castelli", "name": "Castello dei Solaro (Monasterolo)", "address": "Piazza Castello 6"}}, {"geometry": {"type": "Point", "coordinates": [8.48095417, 45.54271317]}, "type": "Feature", "id": null, "properties": {"province": "No", "city": "Briona", "category": "Castelli", "name": "Castello di Briona", "address": "Via della Rocca 4"}}, {"geometry": {"type": "Point", "coordinates": [8.51058483, 45.53581238]}, "type": "Feature", "id": null, "properties": {"province": "No", "city": "Briona", "category": "Castelli", "name": "Castello di Proh (Briona)", "address": "Frazione Proh "}}, {"geometry": {"type": "Point", "coordinates": [7.87564659, 45.46799469]}, "type": "Feature", "id": null, "properties": {"province": "To", "city": "Ivrea", "category": "Castelli", "name": "Castello \u0093delle quattro torri\u0094 (Ivrea)", "address": "Piazza Castello "}}, {"geometry": {"type": "Point", "coordinates": [7.90250015, 44.86079788]}, "type": "Feature", "id": null, "properties": {"province": "To", "city": "Pralormo", "category": "Castelli", "name": "Castello di Pralormo", "address": "Via Umberto I 26"}}, {"geometry": {"type": "Point", "coordinates": [7.01479959, 45.19116974]}, "type": "Feature", "id": null, "properties": {"province": "To", "city": "Novalesa", "category": "Abbazie e chiese", "name": "Abbazia di Novalesa", "address": "Borgata San Pietro 4"}}, {"geometry": {"type": "Point", "coordinates": [8.62256813, 44.83559036]}, "type": "Feature", "id": null, "properties": {"province": "Al", "city": "Bosco Marengo", "category": "Abbazie e chiese", "name": "Chiesa di Santa Croce (Bosco Marengo)", "address": "Via Roma 1"}}, {"geometry": {"type": "Point", "coordinates": [8.57406902, 44.78215408]}, "type": "Feature", "id": null, "properties": {"province": "Al", "city": "Sezzadio", "category": "Abbazie e chiese", "name": "Abbazia di Santa Giustina (Sezzadio)", "address": "Via Badia 53"}}, {"geometry": {"type": "Point", "coordinates": [7.76901865, 45.07786942]}, "type": "Feature", "id": null, "properties": {"province": "To", "city": "Torino", "category": "Abbazie e chiese", "name": "Basilica di Superga (Torino)", "address": "Strada Basilica di Superga 73"}}, {"geometry": {"type": "Point", "coordinates": [7.9501791, 45.5616684]}, "type": "Feature", "id": null, "properties": {"province": "Bi", "city": "Graglia", "category": "Abbazie e chiese", "name": "Santuario di Graglia", "address": "Regione Campiglie - Frazione Santuario 1"}}, {"geometry": {"type": "Point", "coordinates": [7.41880226, 44.69008255]}, "type": "Feature", "id": null, "properties": {"province": "Cn", "city": "Revello", "category": "Abbazie e chiese", "name": "Abbazia di Staffarda (Revello)", "address": "Via Staffarda "}}, {"geometry": {"type": "Point", "coordinates": [8.61329174, 45.5497551]}, "type": "Feature", "id": null, "properties": {"province": "No", "city": "Bellinzago Novarese", "category": "Abbazie e chiese", "name": "Badia di Dulzago (Bellinzago Novarese)", "address": "Fraz. Badia di Dulzago "}}, {"geometry": {"type": "Point", "coordinates": [7.46066809, 45.07833862]}, "type": "Feature", "id": null, "properties": {"province": "To", "city": "Buttigliera Alta", "category": "Abbazie e chiese", "name": "Abbazia di Sant'Antonio di Ranverso (Buttigliera Alta)", "address": "Via S. Antonio di Ranverso 1"}}, {"geometry": {"type": "Point", "coordinates": [7.8640399, 44.36382675]}, "type": "Feature", "id": null, "properties": {"province": "Cn", "city": "Vicoforte", "category": "Abbazie e chiese", "name": "Santuario di Vicoforte", "address": "Piazza Carlo Emanuele I 1"}}, {"geometry": {"type": "Point", "coordinates": [7.70865202, 45.38883591]}, "type": "Feature", "id": null, "properties": {"province": "To", "city": "Valperga", "category": "Sacri Monti", "name": "Sacro Monte di Belmonte (Valperga)", "address": "Corso Massimo d\u0092Azeglio 216"}}, {"geometry": {"type": "Point", "coordinates": [8.61875629, 45.9646225]}, "type": "Feature", "id": null, "properties": {"province": "Vb", "city": "Ghiffa", "category": "Sacri Monti", "name": "Sacro Monte della SS.Trinit\u00e0 di Ghiffa", "address": "via Santissima Trinit\u00e0 48"}}, {"geometry": {"type": "Point", "coordinates": [8.2875452, 46.10530472]}, "type": "Feature", "id": null, "properties": {"province": "Vb", "city": "Domodossola", "category": "Sacri Monti", "name": "Sacro Monte Calvario (Domodossola)", "address": "Borgata Sacro Monte Calvario 5"}}, {"geometry": {"type": "Point", "coordinates": [8.41223717, 45.79743195]}, "type": "Feature", "id": null, "properties": {"province": "No", "city": "Orta San Giulio", "category": "Sacri Monti", "name": "Sacro Monte di Orta (Orta San Giulio)", "address": "Via Sacro Monte "}}, {"geometry": {"type": "Point", "coordinates": [8.24794197, 45.81588745]}, "type": "Feature", "id": null, "properties": {"province": "Vc", "city": "Varallo", "category": "Sacri Monti", "name": "Sacro Monte di Varallo", "address": "Piazza della Basilica - Localit\u00e0 Sacro Monte "}}, {"geometry": {"type": "Point", "coordinates": [7.68455935, 45.07316589]}, "type": "Feature", "id": null, "properties": {"province": "To", "city": "Torino", "category": "Abbazie e chiese", "name": "Cattedrale di San Giovanni Battista (Torino)", "address": "Via XX Settembre 87"}}, {"geometry": {"type": "Point", "coordinates": [7.69886732, 45.06217957]}, "type": "Feature", "id": null, "properties": {"province": "To", "city": "Torino", "category": "Abbazie e chiese", "name": "Chiesa della Gran Madre di Dio (Torino)", "address": "Piazza Gran Madre di Dio 4"}}, {"geometry": {"type": "Point", "coordinates": [7.67605639, 45.07620239]}, "type": "Feature", "id": null, "properties": {"province": "To", "city": "Torino", "category": "Abbazie e chiese", "name": "Chiesa di San Domenico (Torino)", "address": "Via San Domenico "}}, {"geometry": {"type": "Point", "coordinates": [7.68454552, 45.06786728]}, "type": "Feature", "id": null, "properties": {"province": "To", "city": "Torino", "category": "Abbazie e chiese", "name": "Chiesa di San Filippo Neri (Torino)", "address": "Via Maria Vittoria 5"}}, {"geometry": {"type": "Point", "coordinates": [7.68218279, 45.06715775]}, "type": "Feature", "id": null, "properties": {"province": "To", "city": "Torino", "category": "Abbazie e chiese", "name": "Chiese di San Carlo e Santa Cristina (Torino)", "address": "Piazza S.Carlo "}}, {"geometry": {"type": "Point", "coordinates": [7.67974234, 45.07308197]}, "type": "Feature", "id": null, "properties": {"province": "To", "city": "Torino", "category": "Abbazie e chiese", "name": "Cappella della Pia Congregazione dei Banchieri e dei Mercanti (Torino)", "address": "Via Garibaldi 25"}}, {"geometry": {"type": "Point", "coordinates": [7.67952824, 45.07624054]}, "type": "Feature", "id": null, "properties": {"province": "To", "city": "Torino", "category": "Abbazie e chiese", "name": "Santuario della Consolata (Torino)", "address": "Via Maria Adelaide "}}, {"geometry": {"type": "Point", "coordinates": [7.68269491, 45.06034851]}, "type": "Feature", "id": null, "properties": {"province": "To", "city": "Torino", "category": "Abbazie e chiese", "name": "Sinagoga di Torino", "address": "Via San Pio V 12"}}, {"geometry": {"type": "Point", "coordinates": [7.68387365, 45.06075287]}, "type": "Feature", "id": null, "properties": {"province": "To", "city": "Torino", "category": "Abbazie e chiese", "name": "Tempio Valdese (Torino)", "address": "Corso Vittorio Emanuele II 23"}}, {"geometry": {"type": "Point", "coordinates": [7.99316311, 45.65949249]}, "type": "Feature", "id": null, "properties": {"province": "Bi", "city": "Campiglia Cervo", "category": "Abbazie e chiese", "name": "Santuario di San Giovanni d'Andorno (Campiglia Cervo)", "address": "Frazione San Giovanni "}}, {"geometry": {"type": "Point", "coordinates": [7.67991161, 44.31824875]}, "type": "Feature", "id": null, "properties": {"province": "Cn", "city": "Chiusa Pesio", "category": "Abbazie e chiese", "name": "Certosa di Pesio (Chiusa di Pesio)", "address": "Via Provinciale S. Bartolomeo 17"}}, {"geometry": {"type": "Point", "coordinates": [8.42329693, 45.43812561]}, "type": "Feature", "id": null, "properties": {"province": "No", "city": "San Nazzaro Sesia", "category": "Abbazie e chiese", "name": "Abbazia dei Santi Nazario e Celso (San Nazzaro Sesia)", "address": "Via Barbavara 5"}}, {"geometry": {"type": "Point", "coordinates": [8.39985752, 45.79624557]}, "type": "Feature", "id": null, "properties": {"province": "No", "city": "Orta San Giulio", "category": "Abbazie e chiese", "name": "Basilica di San Giulio (Orta San Giulio)", "address": "Isola di San Giulio "}}, {"geometry": {"type": "Point", "coordinates": [8.24626446, 45.21805191]}, "type": "Feature", "id": null, "properties": {"province": "Vc", "city": "Trino", "category": "Abbazie e chiese", "name": "Abbazia di Santa Maria di Lucedio (Trino)", "address": "Fraz. Lucedio - Parco Bosco delle Sorti della Partecipanza "}}, {"geometry": {"type": "Point", "coordinates": [8.28763103, 45.71202469]}, "type": "Feature", "id": null, "properties": {"province": "Vc", "city": "Borgosesia", "category": "Abbazie e chiese", "name": "Santuario di Sant'Anna (Borgosesia)", "address": "Localit\u00e0 Montrigone "}}, {"geometry": {"type": "Point", "coordinates": [8.10480881, 45.54724121]}, "type": "Feature", "id": null, "properties": {"province": "Bi", "city": "Candelo", "category": "Architetture notevoli", "name": "Ricetto di Candelo", "address": " "}}, {"geometry": {"type": "Point", "coordinates": [8.18106174, 45.54451752]}, "type": "Feature", "id": null, "properties": {"province": "Bi", "city": "Cossato", "category": "Castelli", "name": "Castello di Castellengo", "address": "Frazione Castellengo 31"}}, {"geometry": {"type": "Point", "coordinates": [8.16418839, 45.49146652]}, "type": "Feature", "id": null, "properties": {"province": "Bi", "city": "Massazza", "category": "Castelli", "name": "Castello di Massazza", "address": "Strada Statale 230 - Via Trossi "}}, {"geometry": {"type": "Point", "coordinates": [8.16762161, 44.41501999]}, "type": "Feature", "id": null, "properties": {"province": "Cn", "city": "Saliceto", "category": "Castelli", "name": "Castello del Carretto (Saliceto)", "address": "Via Vittorio Emanuele II "}}, {"geometry": {"type": "Point", "coordinates": [7.55546093, 44.62401199]}, "type": "Feature", "id": null, "properties": {"province": "Cn", "city": "Lagnasco", "category": "Castelli", "name": "Castello Tapparelli D'Azeglio (Lagnasco)", "address": "Via Castelli 2"}}, {"geometry": {"type": "Point", "coordinates": [8.11885071, 44.46569824]}, "type": "Feature", "id": null, "properties": {"province": "Cn", "city": "Monesiglio", "category": "Castelli", "name": "Castello di Monesiglio", "address": " "}}, {"geometry": {"type": "Point", "coordinates": [7.93996477, 44.71956253]}, "type": "Feature", "id": null, "properties": {"province": "Cn", "city": "Monticello d'Alba", "category": "Castelli", "name": "Castello di Monticello d'Alba", "address": "Via Castello 1"}}, {"geometry": {"type": "Point", "coordinates": [8.69616985, 45.47806168]}, "type": "Feature", "id": null, "properties": {"province": "No", "city": "Galliate", "category": "Castelli", "name": "Castello di Galliate", "address": "Piazza Vittorio Veneto "}}, {"geometry": {"type": "Point", "coordinates": [7.93954229, 45.30506516]}, "type": "Feature", "id": null, "properties": {"province": "To", "city": "Mazz\u00e8", "category": "Castelli", "name": "Castello di Mazz\u00e8", "address": "Via Castello 10"}}, {"geometry": {"type": "Point", "coordinates": [7.79418278, 45.43029404]}, "type": "Feature", "id": null, "properties": {"province": "To", "city": "Parella", "category": "Castelli", "name": "Castello di Parella", "address": "Via Carandini 40"}}, {"geometry": {"type": "Point", "coordinates": [7.85497761, 45.43546677]}, "type": "Feature", "id": null, "properties": {"province": "To", "city": "Pavone Canavese", "category": "Castelli", "name": "Castello di Pavone", "address": "Via Ricetti 1"}}, {"geometry": {"type": "Point", "coordinates": [7.62579012, 45.33345032]}, "type": "Feature", "id": null, "properties": {"province": "To", "city": "Rivara", "category": "Castelli", "name": "Castello di Rivara", "address": "Piazza Sillano 2"}}, {"geometry": {"type": "Point", "coordinates": [7.69231939, 45.33348846]}, "type": "Feature", "id": null, "properties": {"province": "To", "city": "Valperga", "category": "Castelli", "name": "Castello di Valperga", "address": "Via Cesare Battisti 19"}}, {"geometry": {"type": "Point", "coordinates": [7.98782587, 45.36105728]}, "type": "Feature", "id": null, "properties": {"province": "To", "city": "Borgomasino", "category": "Castelli", "name": "Castello di Borgomasino", "address": "Via Bonfiglio 2"}}, {"geometry": {"type": "Point", "coordinates": [8.58667374, 44.66187668]}, "type": "Feature", "id": null, "properties": {"province": "Al", "city": "Trisobbio", "category": "Castelli", "name": "Castello di Trisobbio", "address": "Via Cavour 1"}}, {"geometry": {"type": "Point", "coordinates": [8.55985069, 44.69264603]}, "type": "Feature", "id": null, "properties": {"province": "Al", "city": "Orsara Bormida", "category": "Castelli", "name": "Castello di Orsara Bormida", "address": "Via Castello "}}, {"geometry": {"type": "Point", "coordinates": [8.73900127, 44.9636879]}, "type": "Feature", "id": null, "properties": {"province": "Al", "city": "Piovera", "category": "Castelli", "name": "Castello Balbi (Piovera)", "address": "Via Balbi "}}, {"geometry": {"type": "Point", "coordinates": [8.78155994, 44.79345322]}, "type": "Feature", "id": null, "properties": {"province": "Al", "city": "Pozzolo Formigaro", "category": "Castelli", "name": "Castello di Pozzolo Formigaro", "address": "Piazza Castello "}}, {"geometry": {"type": "Point", "coordinates": [8.41644192, 45.1073761]}, "type": "Feature", "id": null, "properties": {"province": "Al", "city": "San Giorgio Monferrato", "category": "Castelli", "name": "Castello Ricaldone o San Giorgio (San Giorgio Monferrato)", "address": "Via Cavalli D\u1e40Olivola 3"}}, {"geometry": {"type": "Point", "coordinates": [8.32488155, 44.64805222]}, "type": "Feature", "id": null, "properties": {"province": "At", "city": "Monastero Bormida", "category": "Castelli", "name": "Castello di Monastero Bormida", "address": "Piazza Castello 1"}}, {"geometry": {"type": "Point", "coordinates": [7.93381596, 44.6374054]}, "type": "Feature", "id": null, "properties": {"province": "Cn", "city": "Roddi", "category": "Castelli", "name": "Castello di Roddi", "address": "Piazza Carlo Alberto 2"}}, {"geometry": {"type": "Point", "coordinates": [7.797966, 45.33725739]}, "type": "Feature", "id": null, "properties": {"province": "To", "city": "San Giorgio Canavese", "category": "Castelli", "name": "Castello di San Giorgio Canavese", "address": "Via Biandrate 31"}}, {"geometry": {"type": "Point", "coordinates": [8.29540157, 46.00785065]}, "type": "Feature", "id": null, "properties": {"province": "Vb", "city": "Vogogna", "category": "Castelli", "name": "Castello Visconteo (Vogogna)", "address": "Via del Castello "}}, {"geometry": {"type": "Point", "coordinates": [7.99599028, 45.33094025]}, "type": "Feature", "id": null, "properties": {"province": "Vc", "city": "Moncrivello", "category": "Castelli", "name": "Castello di Moncrivello", "address": "Via Duchessa Jolanda 8"}}, {"geometry": {"type": "Point", "coordinates": [8.36242199, 45.3788414]}, "type": "Feature", "id": null, "properties": {"province": "Vc", "city": "Quinto Vercellese", "category": "Castelli", "name": "Castello di Quinto Vercellese", "address": "Via Castello 9"}}, {"geometry": {"type": "Point", "coordinates": [8.3137579, 45.53676605]}, "type": "Feature", "id": null, "properties": {"province": "Vc", "city": "Rovasenda", "category": "Castelli", "name": "Castello di Rovasenda", "address": "Piazza Libert\u00e0 1"}}, {"geometry": {"type": "Point", "coordinates": [8.19262123, 45.16018295]}, "type": "Feature", "id": null, "properties": {"province": "Al", "city": "Gabiano", "category": "Castelli", "name": "Castello Negrotto Cambiaso (Gabiano)", "address": "Via San Defendente 2"}}, {"geometry": {"type": "Point", "coordinates": [8.68400288, 46.02221298]}, "type": "Feature", "id": null, "properties": {"province": "Vb", "city": "Cannero Riviera", "category": "Castelli", "name": "Castello di Cannero Riviera", "address": "Piazza degli Alpini "}}, {"geometry": {"type": "Point", "coordinates": [8.20919418, 44.98242569]}, "type": "Feature", "id": null, "properties": {"province": "At", "city": "Castell'Alfero", "category": "Castelli", "name": "Castello di Castell'Alfero", "address": "Piazza Castello "}}, {"geometry": {"type": "Point", "coordinates": [8.0718832, 45.02508163]}, "type": "Feature", "id": null, "properties": {"province": "At", "city": "Piea", "category": "Castelli", "name": "Castello di Piea", "address": "Piazza Italia 3"}}, {"geometry": {"type": "Point", "coordinates": [8.0782795, 44.99595261]}, "type": "Feature", "id": null, "properties": {"province": "At", "city": "Soglio", "category": "Castelli", "name": "Castello di Soglio", "address": "Via Crova 21"}}, {"geometry": {"type": "Point", "coordinates": [8.73120117, 44.63389206]}, "type": "Feature", "id": null, "properties": {"province": "Al", "city": "Tagliolo Monferrato", "category": "Castelli", "name": "Castello Pinelli Gentile (Tagliolo Monferrato)", "address": "Via Castello 1"}}, {"geometry": {"type": "Point", "coordinates": [7.94923496, 45.43475342]}, "type": "Feature", "id": null, "properties": {"province": "To", "city": "Caravino", "category": "Castelli", "name": "Castello di Masino (Caravino)", "address": "Via Del Castello 1"}}, {"geometry": {"type": "Point", "coordinates": [8.52137375, 45.89982986]}, "type": "Feature", "id": null, "properties": {"province": "Vb", "city": "Stresa", "category": "Giardini e dimore storiche", "name": "Palazzo Borromeo e giardini - Isola Madre (Stresa)", "address": "Isola Madre "}}, {"geometry": {"type": "Point", "coordinates": [8.52075386, 45.90039825]}, "type": "Feature", "id": null, "properties": {"province": "Vb", "city": "Stresa", "category": "Giardini e dimore storiche", "name": "Palazzo Borromeo e giardini - Isola Bella (Stresa)", "address": "Isola Bella "}}, {"geometry": {"type": "Point", "coordinates": [8.53916359, 45.88471603]}, "type": "Feature", "id": null, "properties": {"province": "Vb", "city": "Stresa", "category": "Giardini e dimore storiche", "name": "Giardino di Villa Ducale (Stresa)", "address": "Corso Umberto I 15"}}, {"geometry": {"type": "Point", "coordinates": [8.56579399, 45.92592621]}, "type": "Feature", "id": null, "properties": {"province": "Vb", "city": "Verbania", "category": "Giardini e dimore storiche", "name": "Giardini di Villa Taranto (Verbania Pallanza)", "address": "Via Vittorio Veneto 111"}}, {"geometry": {"type": "Point", "coordinates": [8.65125656, 45.99608231]}, "type": "Feature", "id": null, "properties": {"province": "Vb", "city": "Oggebbio", "category": "Giardini e dimore storiche", "name": "Giardino di Villa Anelli (Gonte di Oggebbio)", "address": "Via Vittorio Veneto 6"}}, {"geometry": {"type": "Point", "coordinates": [8.5598402, 45.92405319]}, "type": "Feature", "id": null, "properties": {"province": "Vb", "city": "Verbania", "category": "Giardini e dimore storiche", "name": "Giardini di Villa San Remigio (Verbania Pallanza)", "address": "Via San Remigio "}}, {"geometry": {"type": "Point", "coordinates": [8.55641556, 45.87821198]}, "type": "Feature", "id": null, "properties": {"province": "Vb", "city": "Stresa", "category": "Giardini e dimore storiche", "name": "Parco di Villa Pallavicino (Stresa)", "address": "Via Sempione Sud 8"}}, {"geometry": {"type": "Point", "coordinates": [7.68760, 45.07105]}, "type": "Feature", "id": null, "properties": {"province": "To", "city": "Torino", "category": "Architetture notevoli", "name": "Archivio di Stato (Torino)", "address": "Piazza Castello, 209"}}, {"geometry": {"type": "Point", "coordinates": [7.68436623, 45.0678978]}, "type": "Feature", "id": null, "properties": {"province": "To", "city": "Torino", "category": "Architetture notevoli", "name": "Palazzo Carpano (Torino)", "address": "Via Maria Vittoria 4"}}, {"geometry": {"type": "Point", "coordinates": [7.68937349, 45.06957245]}, "type": "Feature", "id": null, "properties": {"province": "To", "city": "Torino", "category": "Architetture notevoli", "name": "La Cavallerizza (Torino)", "address": "Via Giuseppe Verdi 9"}}, {"geometry": {"type": "Point", "coordinates": [7.69703531, 45.06778336]}, "type": "Feature", "id": null, "properties": {"province": "To", "city": "Torino", "category": "Architetture notevoli", "name": "Fetta di Polenta (Torino)", "address": "Via Giulia Di Barolo 9"}}, {"geometry": {"type": "Point", "coordinates": [7.66726065, 45.03242493]}, "type": "Feature", "id": null, "properties": {"province": "To", "city": "Torino", "category": "Architetture notevoli", "name": "Lingotto (Torino)", "address": "Via Nizza 250"}}, {"geometry": {"type": "Point", "coordinates": [7.63776588, 45.01050186]}, "type": "Feature", "id": null, "properties": {"province": "To", "city": "Torino", "category": "Architetture notevoli", "name": "Mausoleo della Bela Rosin (Torino)", "address": "Strada del Castello di Mirafiori 148"}}, {"geometry": {"type": "Point", "coordinates": [7.65048456, 45.04322433]}, "type": "Feature", "id": null, "properties": {"province": "To", "city": "Torino", "category": "Architetture notevoli", "name": "PalaIsozaki (Torino)", "address": "Corso Sebastopoli 123"}}, {"geometry": {"type": "Point", "coordinates": [7.66781187, 45.02339935]}, "type": "Feature", "id": null, "properties": {"province": "To", "city": "Torino", "category": "Architetture notevoli", "name": "Palavela (Torino)", "address": "Via Ventimiglia 145"}}, {"geometry": {"type": "Point", "coordinates": [7.66458607, 45.07666397]}, "type": "Feature", "id": null, "properties": {"province": "To", "city": "Torino", "category": "Architetture notevoli", "name": "Palazzina La Fleur (Torino)", "address": "Via Principi d'Acaja 11"}}, {"geometry": {"type": "Point", "coordinates": [7.68938971, 45.0658493]}, "type": "Feature", "id": null, "properties": {"province": "To", "city": "Torino", "category": "Architetture notevoli", "name": "Palazzo Coardi di Carpaneto (Torino)", "address": "Piazza Carlo Emanuele II 15"}}, {"geometry": {"type": "Point", "coordinates": [7.68272638, 45.06536484]}, "type": "Feature", "id": null, "properties": {"province": "To", "city": "Torino", "category": "Architetture notevoli", "name": "Palazzo Cavour (Torino)", "address": "Via Cavour 8"}}, {"geometry": {"type": "Point", "coordinates": [7.68506002, 45.07307816]}, "type": "Feature", "id": null, "properties": {"province": "To", "city": "Torino", "category": "Residenze Reali", "name": "Palazzo Chiablese (Torino)", "address": "Piazza San Giovanni 2"}}, {"geometry": {"type": "Point", "coordinates": [7.68567896, 45.0674324]}, "type": "Feature", "id": null, "properties": {"province": "To", "city": "Torino", "category": "Architetture notevoli", "name": "Palazzo Cisterna (Torino)", "address": "Via Maria Vittoria 12"}}, {"geometry": {"type": "Point", "coordinates": [7.67867327, 45.07463837]}, "type": "Feature", "id": null, "properties": {"province": "To", "city": "Torino", "category": "Architetture notevoli", "name": "Palazzo Barolo (Torino)", "address": "Via delle Orfane 7"}}, {"geometry": {"type": "Point", "coordinates": [7.68760157, 45.06851578]}, "type": "Feature", "id": null, "properties": {"province": "To", "city": "Torino", "category": "Architetture notevoli", "name": "Palazzo Graneri della Roccia (Torino)", "address": "Via Bogino 9"}}, {"geometry": {"type": "Point", "coordinates": [7.67893267, 45.06825638]}, "type": "Feature", "id": null, "properties": {"province": "To", "city": "Torino", "category": "Architetture notevoli", "name": "Palazzo Lascaris (Torino)", "address": "Via Alfieri 15"}}, {"geometry": {"type": "Point", "coordinates": [7.67665052, 45.07396698]}, "type": "Feature", "id": null, "properties": {"province": "To", "city": "Torino", "category": "Architetture notevoli", "name": "Palazzo Saluzzo Paesana (Torino)", "address": "Via della Consolata 1 bis"}}, {"geometry": {"type": "Point", "coordinates": [7.67883444, 45.0731926]}, "type": "Feature", "id": null, "properties": {"province": "To", "city": "Torino", "category": "Architetture notevoli", "name": "Palazzo Scaglia di Verrua (Torino)", "address": "Via Stampatori 4"}}, {"geometry": {"type": "Point", "coordinates": [7.69702578, 45.05187607]}, "type": "Feature", "id": null, "properties": {"province": "To", "city": "Torino", "category": "Architetture notevoli", "name": "Villa Gualino (Torino)", "address": "Viale Settimio Severo 63"}}, {"geometry": {"type": "Point", "coordinates": [7.69863272, 45.05848694]}, "type": "Feature", "id": null, "properties": {"province": "To", "city": "Torino", "category": "Architetture notevoli", "name": "Villa Scott (Torino)", "address": "Corso Lanza 57"}}, {"geometry": {"type": "Point", "coordinates": [7.97125053, 45.07798004]}, "type": "Feature", "id": null, "properties": {"province": "At", "city": "Albugnano", "category": "Abbazie e chiese", "name": "Abbazia di Vezzolano (Albugnano)", "address": "Strada dell'Abbazia "}}, {"geometry": {"type": "Point", "coordinates": [7.32834864, 45.10105133]}, "type": "Feature", "id": null, "properties": {"province": "To", "city": "Sant'Ambrogio di Torino", "category": "Abbazie e chiese", "name": "Sacra di San Michele (Sant'Ambrogio di Torino)", "address": "Via alla Sacra 14"}}, {"geometry": {"type": "Point", "coordinates": [7.76893663, 45.36222839]}, "type": "Feature", "id": null, "properties": {"province": "To", "city": "Agli\u00e8", "category": "Residenze Reali", "name": "Castello di Agli\u00e8", "address": "Piazza Castello 1"}}, {"geometry": {"type": "Point", "coordinates": [7.68642569, 45.00162125]}, "type": "Feature", "id": null, "properties": {"province": "To", "city": "Moncalieri", "category": "Residenze Reali", "name": "Castello di Moncalieri", "address": "Piazza Baden Baden "}}, {"geometry": {"type": "Point", "coordinates": [8.10367775, 44.80727386]}, "type": "Feature", "id": null, "properties": {"province": "Cn", "city": "Govone", "category": "Residenze Reali", "name": "Castello di Govone", "address": "Piazza Roma 1"}}, {"geometry": {"type": "Point", "coordinates": [7.89496565, 44.685112]}, "type": "Feature", "id": null, "properties": {"province": "Cn", "city": "Bra", "category": "Residenze Reali", "name": "Tenuta Reale di Pollenzo (Bra)", "address": "Piazza Vittorio Emanuele II 13"}}, {"geometry": {"type": "Point", "coordinates": [7.67662001, 44.7686615]}, "type": "Feature", "id": null, "properties": {"province": "Cn", "city": "Racconigi", "category": "Residenze Reali", "name": "Castello di Racconigi", "address": "Via Morosini 3"}}, {"geometry": {"type": "Point", "coordinates": [7.60579967, 44.99627686]}, "type": "Feature", "id": null, "properties": {"province": "To", "city": "Nichelino", "category": "Residenze Reali", "name": "Palazzina di Caccia di Stupinigi (Nichelino)", "address": "Piazza Principe Amedeo, 7 - Stupinigi "}}, {"geometry": {"type": "Point", "coordinates": [7.68649149, 45.07040024]}, "type": "Feature", "id": null, "properties": {"province": "To", "city": "Torino", "category": "Residenze Reali", "name": "Palazzo Madama (Torino)", "address": "Piazza Castello "}}, {"geometry": {"type": "Point", "coordinates": [7.68479156, 45.06879425]}, "type": "Feature", "id": null, "properties": {"province": "To", "city": "Torino", "category": "Residenze Reali", "name": "Palazzo Carignano (Torino)", "address": "Via dell'Accademia delle Scienze 5"}}, {"geometry": {"type": "Point", "coordinates": [7.68674469, 45.07017899]}, "type": "Feature", "id": null, "properties": {"province": "To", "city": "Torino", "category": "Residenze Reali", "name": "Palazzo Reale (Torino)", "address": "Piazzetta Reale 1"}}, {"geometry": {"type": "Point", "coordinates": [7.94407749, 44.21735001]}, "type": "Feature", "id": null, "properties": {"province": "Cn", "city": "Garessio", "category": "Residenze Reali", "name": "Castello Reale di Valcasotto (Garessio)", "address": "Localit\u00e0 Casotto "}}, {"geometry": {"type": "Point", "coordinates": [7.68482208, 45.05378723]}, "type": "Feature", "id": null, "properties": {"province": "To", "city": "Torino", "category": "Residenze Reali", "name": "Castello del Valentino (Torino)", "address": "Viale Mattioli 39"}}, {"geometry": {"type": "Point", "coordinates": [7.70456219, 45.05934525]}, "type": "Feature", "id": null, "properties": {"province": "To", "city": "Torino", "category": "Residenze Reali", "name": "Villa della Regina (Torino)", "address": "Strada S. Margherita 79"}}, {"geometry": {"type": "Point", "coordinates": [7.51024675, 45.07019424]}, "type": "Feature", "id": null, "properties": {"province": "To", "city": "Rivoli", "category": "Residenze Reali", "name": "Castello di Rivoli", "address": "Piazza Mafalda di Savoia "}}, {"geometry": {"type": "Point", "coordinates": [7.62564945, 45.13506317]}, "type": "Feature", "id": null, "properties": {"province": "To", "city": "Venaria Reale", "category": "Residenze Reali", "name": "Reggia di Venaria", "address": "Piazza Repubblica 4"}}, {"geometry": {"type": "Point", "coordinates": [8.20427895, 44.90083694]}, "type": "Feature", "id": null, "properties": {"province": "At", "city": "Asti", "category": "Architetture notevoli", "name": "Torre Troyana  (Asti)", "address": "Piazza Medici "}}, {"geometry": {"type": "Point", "coordinates": [0.0, 0.0]}, "type": "Feature", "id": null, "properties": {"province": "At", "city": "Asti", "category": "Abbazie e chiese", "name": "Chiesa di San Secondo (Asti)", "address": "Piazza S. Secondo "}}, {"geometry": {"type": "Point", "coordinates": [8.20480824, 44.89956284]}, "type": "Feature", "id": null, "properties": {"province": "At", "city": "Asti", "category": "Architetture notevoli", "name": "Palazzo Municipale (Asti)", "address": "Piazza S.Secondo 1"}}, {"geometry": {"type": "Point", "coordinates": [8.21164227, 44.90102005]}, "type": "Feature", "id": null, "properties": {"province": "At", "city": "Asti", "category": "Abbazie e chiese", "name": "Complesso San Pietro in Consavia (Asti)", "address": "Corso Alfieri 2"}}, {"geometry": {"type": "Point", "coordinates": [0.0, 0.0]}, "type": "Feature", "id": null, "properties": {"province": "At", "city": "Asti", "category": "Abbazie e chiese", "name": "Cattedrale di Santa Maria Assunta (Asti)", "address": "Piazza Cattedrale "}}, {"geometry": {"type": "Point", "coordinates": [8.20528698, 44.90026855]}, "type": "Feature", "id": null, "properties": {"province": "At", "city": "Asti", "category": "Architetture notevoli", "name": "Palazzo Mazzetti - ora Bellino - (Asti)", "address": "Corso V. Alfieri 357"}}, {"geometry": {"type": "Point", "coordinates": [8.20046043, 44.89934158]}, "type": "Feature", "id": null, "properties": {"province": "At", "city": "Asti", "category": "Architetture notevoli", "name": "Palazzo Ottolenghi (Asti)", "address": "Corso Alfieri 350"}}, {"geometry": {"type": "Point", "coordinates": [8.19845867, 44.8990593]}, "type": "Feature", "id": null, "properties": {"province": "At", "city": "Asti", "category": "Architetture notevoli", "name": "Palazzo Alfieri (Asti)", "address": "Corso Alfieri 375"}}, {"geometry": {"type": "Point", "coordinates": [8.1961937, 44.90029526]}, "type": "Feature", "id": null, "properties": {"province": "At", "city": "Asti", "category": "Architetture notevoli", "name": "Casa Pelletta (Asti)", "address": "Via Varrone 54"}}, {"geometry": {"type": "Point", "coordinates": [8.21468639, 44.90890121]}, "type": "Feature", "id": null, "properties": {"province": "At", "city": "Asti", "category": "Abbazie e chiese", "name": "Certosa di Valmanera (Asti)", "address": "Via dell\u1e40Arazzeria 60"}}, {"geometry": {"type": "Point", "coordinates": [8.1968441, 44.8987236]}, "type": "Feature", "id": null, "properties": {"province": "At", "city": "Asti", "category": "Architetture notevoli", "name": "Torre Rossa (Asti)", "address": "Corso Alfieri 426"}}, {"geometry": {"type": "Point", "coordinates": [8.28723621, 44.72265244]}, "type": "Feature", "id": null, "properties": {"province": "At", "city": "Canelli", "category": "Castelli", "name": "Castello Gancia (Canelli)", "address": "Via Del Castello "}}, {"geometry": {"type": "Point", "coordinates": [8.28849506, 44.71513748]}, "type": "Feature", "id": null, "properties": {"province": "At", "city": "Canelli", "category": "Architetture notevoli", "name": "Cantine Storiche (Canelli)", "address": "Corso Libert\u00e0 66"}}, {"geometry": {"type": "Point", "coordinates": [8.35614967, 44.77457428]}, "type": "Feature", "id": null, "properties": {"province": "At", "city": "Nizza Monferrato", "category": "Architetture notevoli", "name": "Palazzo Comunale (Nizza Monferrato)", "address": "Piazza Martiri d'Alessandria 19"}}, {"geometry": {"type": "Point", "coordinates": [8.35671139, 44.77377319]}, "type": "Feature", "id": null, "properties": {"province": "At", "city": "Nizza Monferrato", "category": "Architetture notevoli", "name": "Palazzo Crova di Vaglio (Nizza Monferrato)", "address": "Via Pio Corsi "}}, {"geometry": {"type": "Point", "coordinates": [8.35365772, 44.77266312]}, "type": "Feature", "id": null, "properties": {"province": "At", "city": "Nizza Monferrato", "category": "Architetture notevoli", "name": "Foro Boario (Nizza Monferrato)", "address": "Piazza Garibaldi "}}, {"geometry": {"type": "Point", "coordinates": [8.27211857, 44.59246445]}, "type": "Feature", "id": null, "properties": {"province": "At", "city": "Roccaverano", "category": "Castelli", "name": "Torre e Castello (Roccaverano)", "address": "Piazza Barbero "}}, {"geometry": {"type": "Point", "coordinates": [8.44204044, 44.79523468]}, "type": "Feature", "id": null, "properties": {"province": "At", "city": "Bruno", "category": "Castelli", "name": "Castello Fa\u00e0 (Bruno)", "address": "Via Fa\u00e0 di Bruno "}}, {"geometry": {"type": "Point", "coordinates": [8.26679802, 45.04884338]}, "type": "Feature", "id": null, "properties": {"province": "At", "city": "Moncalvo", "category": "Abbazie e chiese", "name": "Chiesa di San Francesco (Moncalvo)", "address": "Piazza San Francesco "}}, {"geometry": {"type": "Point", "coordinates": [8.61524487, 44.91322708]}, "type": "Feature", "id": null, "properties": {"province": "Al", "city": "Alessandria", "category": "Architetture notevoli", "name": "Palazzo Rosso (Alessandria)", "address": "Piazza della Libert\u00e0 1"}}, {"geometry": {"type": "Point", "coordinates": [8.6171093, 44.91350555]}, "type": "Feature", "id": null, "properties": {"province": "Al", "city": "Alessandria", "category": "Architetture notevoli", "name": "Palazzo Ghilini (Alessandria)", "address": "Piazza della Libert\u00e0 21"}}, {"geometry": {"type": "Point", "coordinates": [8.61573219, 44.91407776]}, "type": "Feature", "id": null, "properties": {"province": "Al", "city": "Alessandria", "category": "Architetture notevoli", "name": "Palatium Vetius (Alessandria)", "address": "Piazza della Libert\u00e0 28"}}, {"geometry": {"type": "Point", "coordinates": [8.61793327, 44.91194916]}, "type": "Feature", "id": null, "properties": {"province": "Al", "city": "Alessandria", "category": "Abbazie e chiese", "name": "Cattedrale di San Pietro (Alessandria)", "address": "Piazza Giovanni XXIII "}}, {"geometry": {"type": "Point", "coordinates": [0.0, 0.0]}, "type": "Feature", "id": null, "properties": {"province": "Al", "city": "Alessandria", "category": "Architetture notevoli", "name": "La Cittadella (Alessandria)", "address": " "}}, {"geometry": {"type": "Point", "coordinates": [8.61730385, 44.91254807]}, "type": "Feature", "id": null, "properties": {"province": "Al", "city": "Alessandria", "category": "Architetture notevoli", "name": "Palazzo Cuttica (Alessandria)", "address": "Via Parma 1"}}, {"geometry": {"type": "Point", "coordinates": [8.47257233, 44.67443466]}, "type": "Feature", "id": null, "properties": {"province": "Al", "city": "Acqui Terme", "category": "Castelli", "name": "Castello dei Paleologi (Acqui Terme)", "address": "Via Morelli 2"}}, {"geometry": {"type": "Point", "coordinates": [8.4785099, 44.68968582]}, "type": "Feature", "id": null, "properties": {"province": "Al", "city": "Acqui Terme", "category": "Architetture notevoli", "name": "Villa Ottolenghi (Acqui Terme)", "address": "Via Monterosso 42"}}, {"geometry": {"type": "Point", "coordinates": [8.47039509, 44.6754837]}, "type": "Feature", "id": null, "properties": {"province": "Al", "city": "Acqui Terme", "category": "Architetture notevoli", "name": "Edicola e piazza della Bollente (Acqui Terme)", "address": "Piazza della Bollente "}}, {"geometry": {"type": "Point", "coordinates": [8.4706707, 44.67423248]}, "type": "Feature", "id": null, "properties": {"province": "Al", "city": "Acqui Terme", "category": "Abbazie e chiese", "name": "Cattedrale di Nostra Signora Assunta (Acqui)", "address": "Piazza Duomo "}}, {"geometry": {"type": "Point", "coordinates": [8.47006416, 44.67666626]}, "type": "Feature", "id": null, "properties": {"province": "Al", "city": "Acqui Terme", "category": "Architetture notevoli", "name": "Palazzo Robellini (Acqui Terme)", "address": "Piazza A. Levi 12"}}, {"geometry": {"type": "Point", "coordinates": [0.0, 0.0]}, "type": "Feature", "id": null, "properties": {"province": "Al", "city": "Acqui Terme", "category": "Architetture notevoli", "name": "Antiche e Nuove Terme (Acqui Terme)", "address": "Piazza Italia 1"}}, {"geometry": {"type": "Point", "coordinates": [8.45170784, 45.13725662]}, "type": "Feature", "id": null, "properties": {"province": "Al", "city": "Casale Monferrato", "category": "Abbazie e chiese", "name": "Cattedrale di Sant'Evasio (Casale Monferrato)", "address": "Piazza Duomo "}}, {"geometry": {"type": "Point", "coordinates": [8.45427227, 45.02129364]}, "type": "Feature", "id": null, "properties": {"province": "Al", "city": "Conzano", "category": "Architetture notevoli", "name": "Villa Vidua (Conzano)", "address": "Via Oddone Francesco 5"}}, {"geometry": {"type": "Point", "coordinates": [7.93342924, 45.06801605]}, "type": "Feature", "id": null, "properties": {"province": "At", "city": "Moncucco Torinese", "category": "Castelli", "name": "Castello di Moncucco Torinese", "address": "Piazza Statuto 1"}}, {"geometry": {"type": "Point", "coordinates": [8.45184422, 45.13869095]}, "type": "Feature", "id": null, "properties": {"province": "Al", "city": "Casale Monferrato", "category": "Abbazie e chiese", "name": "Chiesa di San Domenico (Casale Monferrato)", "address": "Piazza San Domenico "}}, {"geometry": {"type": "Point", "coordinates": [8.44972801, 45.13579559]}, "type": "Feature", "id": null, "properties": {"province": "Al", "city": "Casale Monferrato", "category": "Abbazie e chiese", "name": "Sinagoga di Casale Monferrato", "address": "Vicolo Salomone Olper 44"}}, {"geometry": {"type": "Point", "coordinates": [8.4532953, 45.1360541]}, "type": "Feature", "id": null, "properties": {"province": "Al", "city": "Casale Monferrato", "category": "Architetture notevoli", "name": "Palazzo Gozzani di Treville (Casale Monferrato)", "address": "Via Mameli 29"}}, {"geometry": {"type": "Point", "coordinates": [8.44855213, 45.13599014]}, "type": "Feature", "id": null, "properties": {"province": "Al", "city": "Casale Monferrato", "category": "Architetture notevoli", "name": "Palazzo Anna d'Alen\u00e7on (Casale Monferrato)", "address": "Via Alessandria "}}, {"geometry": {"type": "Point", "coordinates": [0.0, 0.0]}, "type": "Feature", "id": null, "properties": {"province": "Al", "city": "Casale Monferrato", "category": "Architetture notevoli", "name": "Palazzo Gozani di San Giorgio (Casale Monferrato)", "address": "Via Mameli 10"}}, {"geometry": {"type": "Point", "coordinates": [8.44777966, 45.13663864]}, "type": "Feature", "id": null, "properties": {"province": "Al", "city": "Casale Monferrato", "category": "Castelli", "name": "Castello dei Paleologi (Casale Monferrato)", "address": "Piazza Castello "}}, {"geometry": {"type": "Point", "coordinates": [8.44943047, 45.13739777]}, "type": "Feature", "id": null, "properties": {"province": "Al", "city": "Casale Monferrato", "category": "Architetture notevoli", "name": "Torre Civica (Casale Monferrato)", "address": "Via Saffi "}}, {"geometry": {"type": "Point", "coordinates": [8.52630043, 44.74880981]}, "type": "Feature", "id": null, "properties": {"province": "Al", "city": "Cassine", "category": "Abbazie e chiese", "name": "Chiesa di San Francesco (Cassine)", "address": "Piazza Vittorio Veneto "}}, {"geometry": {"type": "Point", "coordinates": [8.52365398, 44.74826431]}, "type": "Feature", "id": null, "properties": {"province": "Al", "city": "Cassine", "category": "Architetture notevoli", "name": "Palazzo Zoppi (Cassine)", "address": "Via S. Realino 15016"}}, {"geometry": {"type": "Point", "coordinates": [8.5865097, 44.63684464]}, "type": "Feature", "id": null, "properties": {"province": "Al", "city": "Cremolino", "category": "Castelli", "name": "Castello Malaspina (Cremolino)", "address": "Via Umberto I 28"}}, {"geometry": {"type": "Point", "coordinates": [8.44434357, 44.87783051]}, "type": "Feature", "id": null, "properties": {"province": "Al", "city": "Masio", "category": "Castelli", "name": "Castello di Redabue (Masio)", "address": "Strada Redabue 5"}}, {"geometry": {"type": "Point", "coordinates": [8.60174084, 44.6197052]}, "type": "Feature", "id": null, "properties": {"province": "Al", "city": "Molare", "category": "Castelli", "name": "Castello Chiabrera o Gajoli Boidi (Molare)", "address": " "}}, {"geometry": {"type": "Point", "coordinates": [8.79832458, 44.75424957]}, "type": "Feature", "id": null, "properties": {"province": "Al", "city": "Novi Ligure", "category": "Abbazie e chiese", "name": "Chiesa dell'Oratorio della Maddalena (Novi Ligure)", "address": "Via Abba Cesare Giulio 28"}}, {"geometry": {"type": "Point", "coordinates": [8.7863493, 44.75909805]}, "type": "Feature", "id": null, "properties": {"province": "Al", "city": "Novi Ligure", "category": "Abbazie e chiese", "name": "Collegiata di Santa Maria Maggiore (Novi Ligure)", "address": "Piazza Dellepiane "}}, {"geometry": {"type": "Point", "coordinates": [8.64793396, 44.64060593]}, "type": "Feature", "id": null, "properties": {"province": "Al", "city": "Ovada", "category": "Architetture notevoli", "name": "Loggia di San Sebastiano (Ovada)", "address": "Via San Sebastiano "}}, {"geometry": {"type": "Point", "coordinates": [8.62176991, 44.62358475]}, "type": "Feature", "id": null, "properties": {"province": "Al", "city": "Ovada", "category": "Architetture notevoli", "name": "Villa Schella (Ovada)", "address": "Strada Molare "}}, {"geometry": {"type": "Point", "coordinates": [8.19924736, 45.05107498]}, "type": "Feature", "id": null, "properties": {"province": "Al", "city": "Alfiano Natta", "category": "Castelli", "name": "Castello di Razzano (Alfiano Natta)", "address": "Localit\u00e0 Razzano 2"}}, {"geometry": {"type": "Point", "coordinates": [8.96178246, 44.72997284]}, "type": "Feature", "id": null, "properties": {"province": "Al", "city": "Borghetto di Borbera", "category": "Architetture notevoli", "name": "Casa del Fante (Borghetto di Borbera)", "address": "Frazione Torre Ratti "}}, {"geometry": {"type": "Point", "coordinates": [8.56594181, 45.06121063]}, "type": "Feature", "id": null, "properties": {"province": "Al", "city": "Giarole", "category": "Castelli", "name": "Castello Sannazzaro (Giarole)", "address": "Via Roma 5"}}, {"geometry": {"type": "Point", "coordinates": [8.42643356, 44.64424896]}, "type": "Feature", "id": null, "properties": {"province": "Al", "city": "Melazzo", "category": "Castelli", "name": "Castello Gandolfi (Melazzo)", "address": "Via Amedeo d\u1e40Aosta 35"}}, {"geometry": {"type": "Point", "coordinates": [8.7563858, 44.63978195]}, "type": "Feature", "id": null, "properties": {"province": "Al", "city": "Montaldeo", "category": "Castelli", "name": "Castello di Montaldeo", "address": "Via Andrea Doria 4"}}, {"geometry": {"type": "Point", "coordinates": [8.55241299, 44.63973236]}, "type": "Feature", "id": null, "properties": {"province": "Al", "city": "Prasco", "category": "Castelli", "name": "Castello di Prasco", "address": "Via Gallesio 1"}}, {"geometry": {"type": "Point", "coordinates": [8.56673336, 45.01706314]}, "type": "Feature", "id": null, "properties": {"province": "Al", "city": "San Salvatore Monferrato", "category": "Giardini e dimore storiche", "name": "Giardini di Villa Genova (San Salvatore Monferrato)", "address": "Frazione Fosseto "}}, {"geometry": {"type": "Point", "coordinates": [8.42072678, 44.66960144]}, "type": "Feature", "id": null, "properties": {"province": "Al", "city": "Terzo", "category": "Architetture notevoli", "name": "Torre Medioevale (Terzo)", "address": "Via Don Bosco "}}, {"geometry": {"type": "Point", "coordinates": [8.22696781, 44.73986816]}, "type": "Feature", "id": null, "properties": {"province": "At", "city": "Calosso", "category": "Castelli", "name": "Castello di Calosso", "address": "Piazza Castello 7"}}, {"geometry": {"type": "Point", "coordinates": [8.08998299, 45.01475525]}, "type": "Feature", "id": null, "properties": {"province": "At", "city": "Cortanze", "category": "Castelli", "name": "Castello di Cortanze", "address": "Via Marchesi Roero 1"}}, {"geometry": {"type": "Point", "coordinates": [8.32723427, 44.56787109]}, "type": "Feature", "id": null, "properties": {"province": "At", "city": "Mombaldone", "category": "Castelli", "name": "Castello di Mombaldone d'Asti", "address": "Via Roma 1"}}, {"geometry": {"type": "Point", "coordinates": [8.07037354, 44.9380455]}, "type": "Feature", "id": null, "properties": {"province": "At", "city": "Monale", "category": "Castelli", "name": "Castello Scarampi (Monale)", "address": "Piazza Gani "}}, {"geometry": {"type": "Point", "coordinates": [8.0361414, 44.70054245]}, "type": "Feature", "id": null, "properties": {"province": "Cn", "city": "Alba", "category": "Architetture notevoli", "name": "Palazzo Comunale (Alba)", "address": "Piazza Risorgimento 1"}}, {"geometry": {"type": "Point", "coordinates": [7.3029108, 44.75304031]}, "type": "Feature", "id": null, "properties": {"province": "Cn", "city": "Bagnolo Piemonte", "category": "Castelli", "name": "Complesso Feudale Malingri (Bagnolo Piemonte)", "address": "Via Palazzo 23"}}, {"geometry": {"type": "Point", "coordinates": [8.10595989, 44.62898254]}, "type": "Feature", "id": null, "properties": {"province": "Cn", "city": "Borgomale", "category": "Castelli", "name": "Castello di Borgomale", "address": "Piazza Castello 3"}}, {"geometry": {"type": "Point", "coordinates": [7.43135548, 44.41698074]}, "type": "Feature", "id": null, "properties": {"province": "Cn", "city": "Caraglio", "category": "Architetture notevoli", "name": "Convento dei Cappuccini (Caraglio)", "address": "Via dei Cappuccini 29"}}, {"geometry": {"type": "Point", "coordinates": [7.43445253, 44.62494659]}, "type": "Feature", "id": null, "properties": {"province": "Cn", "city": "Castellar", "category": "Castelli", "name": "Castello dei Marchesi di Saluzzo (Castellar)", "address": "Via Cambiano "}}, {"geometry": {"type": "Point", "coordinates": [7.85815811, 44.65080643]}, "type": "Feature", "id": null, "properties": {"province": "Cn", "city": "Cherasco", "category": "Architetture notevoli", "name": "Palazzo Salmatoris (Cherasco)", "address": "Via Vittorio Emanuele 31"}}, {"geometry": {"type": "Point", "coordinates": [7.48210526, 44.5633316]}, "type": "Feature", "id": null, "properties": {"province": "Cn", "city": "Costigliole Saluzzo", "category": "Castelli", "name": "Castello Reynaudi o Castello Rosso (Costigliole Saluzzo)", "address": "Via Ammiraglio Reynaudi 5"}}, {"geometry": {"type": "Point", "coordinates": [7.48489285, 44.56455994]}, "type": "Feature", "id": null, "properties": {"province": "Cn", "city": "Costigliole Saluzzo", "category": "Architetture notevoli", "name": "Palazzo dei Conti Giriodi di Monastero (Costigliole Saluzzo)", "address": "Via Vittorio Veneto 59"}}, {"geometry": {"type": "Point", "coordinates": [8.54542446, 44.74422836]}, "type": "Feature", "id": null, "properties": {"province": "Al", "city": "Castelnuovo Bormida", "category": "Castelli", "name": "Castello di Castelnuovo Bormida", "address": "Piazza Marconi 9"}}, {"geometry": {"type": "Point", "coordinates": [8.67105579, 44.98991776]}, "type": "Feature", "id": null, "properties": {"province": "Al", "city": "Montecastello", "category": "Castelli", "name": "Castello di Montecastello", "address": "Via del Castello 5"}}, {"geometry": {"type": "Point", "coordinates": [7.48610592, 44.5632782]}, "type": "Feature", "id": null, "properties": {"province": "Cn", "city": "Costigliole Saluzzo", "category": "Architetture notevoli", "name": "Palazzo Sarriod De La Tour (Costigliole Saluzzo)", "address": "Via Vittorio Veneto 103"}}, {"geometry": {"type": "Point", "coordinates": [7.48488665, 44.56269073]}, "type": "Feature", "id": null, "properties": {"province": "Cn", "city": "Costigliole Saluzzo", "category": "Abbazie e chiese", "name": "Chiesa di S. Maria Maddalena (Costigliole Saluzzo)", "address": "Via Umberto I "}}, {"geometry": {"type": "Point", "coordinates": [7.5357275, 44.40423965]}, "type": "Feature", "id": null, "properties": {"province": "Cn", "city": "Cuneo", "category": "Architetture notevoli", "name": "Villa Colombaro San Michele (Cuneo)", "address": "Via Ercole Oldofredi Tadini 19/21"}}, {"geometry": {"type": "Point", "coordinates": [7.4688139, 44.39814377]}, "type": "Feature", "id": null, "properties": {"province": "Cn", "city": "Cuneo", "category": "Architetture notevoli", "name": "Villa Tornaforte (Cuneo)", "address": "Strada Statale 586 "}}, {"geometry": {"type": "Point", "coordinates": [7.72887373, 44.54987335]}, "type": "Feature", "id": null, "properties": {"province": "Cn", "city": "Fossano", "category": "Architetture notevoli", "name": "Palazzo Tesauro (Fossano)", "address": "Via Garibaldi 94"}}, {"geometry": {"type": "Point", "coordinates": [8.03287983, 44.73921967]}, "type": "Feature", "id": null, "properties": {"province": "Cn", "city": "Guarene", "category": "Castelli", "name": "Castello Provana (Guarene)", "address": "Via Alessandro Roero 2"}}, {"geometry": {"type": "Point", "coordinates": [8.06790066, 44.76598358]}, "type": "Feature", "id": null, "properties": {"province": "Cn", "city": "Magliano Alfieri", "category": "Castelli", "name": "Castello degli Alfieri (Magliano Alfieri)", "address": "Piazza Raimondo 1"}}, {"geometry": {"type": "Point", "coordinates": [7.97058296, 44.36844254]}, "type": "Feature", "id": null, "properties": {"province": "Cn", "city": "Mombasiglio", "category": "Castelli", "name": "Castello di Mombasiglio", "address": "Piazza Vittorio Veneto 1"}}, {"geometry": {"type": "Point", "coordinates": [7.82955122, 44.39205933]}, "type": "Feature", "id": null, "properties": {"province": "Cn", "city": "Mondov\u00ec", "category": "Architetture notevoli", "name": "Torre Civica del Belvedere (Mondov\u00ec)", "address": "Giardini del Belvedere - Piazza "}}, {"geometry": {"type": "Point", "coordinates": [7.75979042, 44.42218399]}, "type": "Feature", "id": null, "properties": {"province": "Cn", "city": "Rocca de' Baldi", "category": "Castelli", "name": "Castello di Rocca De' Baldi", "address": "Piazza Pio VII "}}, {"geometry": {"type": "Point", "coordinates": [7.49038696, 44.64838409]}, "type": "Feature", "id": null, "properties": {"province": "Cn", "city": "Saluzzo", "category": "Architetture notevoli", "name": "Torre Civica (Saluzzo)", "address": "Via S. Giovanni 1"}}, {"geometry": {"type": "Point", "coordinates": [7.48750401, 44.63216782]}, "type": "Feature", "id": null, "properties": {"province": "Cn", "city": "Saluzzo", "category": "Architetture notevoli", "name": "Villa Radicati detta Villa del Belvedere (Saluzzo)", "address": "Via San Bernardino "}}, {"geometry": {"type": "Point", "coordinates": [7.65680838, 44.64463425]}, "type": "Feature", "id": null, "properties": {"province": "Cn", "city": "Savigliano", "category": "Architetture notevoli", "name": "Palazzo Muratori Cravetta di Savigliano", "address": "Via Jerusalem 4"}}, {"geometry": {"type": "Point", "coordinates": [7.65602636, 44.64436722]}, "type": "Feature", "id": null, "properties": {"province": "Cn", "city": "Savigliano", "category": "Architetture notevoli", "name": "Palazzo Taffini D'Acceglio (Savigliano)", "address": "Via Sant'Andrea 53"}}, {"geometry": {"type": "Point", "coordinates": [8.64191246, 45.54845047]}, "type": "Feature", "id": null, "properties": {"province": "No", "city": "Bellinzago Novarese", "category": "Architetture notevoli", "name": "Mulino Vecchio (Bellinzago Novarese)", "address": "Roggia Molinara "}}, {"geometry": {"type": "Point", "coordinates": [7.71813869, 44.84477997]}, "type": "Feature", "id": null, "properties": {"province": "To", "city": "Carmagnola", "category": "Abbazie e chiese", "name": "Sinagoga di Carmagnola", "address": "Via Bertini 8"}}, {"geometry": {"type": "Point", "coordinates": [7.60263634, 45.23287201]}, "type": "Feature", "id": null, "properties": {"province": "To", "city": "Ciri\u00e8", "category": "Architetture notevoli", "name": "Villa Remmert (Ciri\u00e9)", "address": "Via Rosmini 1/3"}}, {"geometry": {"type": "Point", "coordinates": [8.64773273, 44.64040375]}, "type": "Feature", "id": null, "properties": {"province": "Al", "city": "Ovada", "category": "Abbazie e chiese", "name": "Oratorio di San Giovanni Battista e della S.S. Trinit\u00e0 (Ovada)", "address": "Piazzetta San Giovanni "}}, {"geometry": {"type": "Point", "coordinates": [8.6465544, 44.6407162]}, "type": "Feature", "id": null, "properties": {"province": "Al", "city": "Ovada", "category": "Abbazie e chiese", "name": "Chiesa dell'Assunta (Ovada)", "address": "Piazza Assunta "}}, {"geometry": {"type": "Point", "coordinates": [8.41172123, 45.07640076]}, "type": "Feature", "id": null, "properties": {"province": "Al", "city": "Rosignano Monferrato", "category": "Castelli", "name": "Castello di Uviglie (Rosignano Monferrato)", "address": "Via Castello d\u1e40Uviglie - Frazione S. Martino 73"}}, {"geometry": {"type": "Point", "coordinates": [8.86140156, 44.70966339]}, "type": "Feature", "id": null, "properties": {"province": "Al", "city": "Serravalle Scrivia", "category": "Architetture notevoli", "name": "Area Archeologica di Libarna (Serravalle Scrivia)", "address": "Via Arquata 63"}}, {"geometry": {"type": "Point", "coordinates": [8.8655386, 44.89736557]}, "type": "Feature", "id": null, "properties": {"province": "Al", "city": "Tortona", "category": "Abbazie e chiese", "name": "Cattedrale di Santa Maria Assunta e San Lorenzo (Tortona)", "address": "Piazza Duomo "}}, {"geometry": {"type": "Point", "coordinates": [8.8655386, 44.89736557]}, "type": "Feature", "id": null, "properties": {"province": "Al", "city": "Tortona", "category": "Architetture notevoli", "name": "Palazzo Vescovile (Tortona)", "address": "Piazza Duomo "}}, {"geometry": {"type": "Point", "coordinates": [8.8140173, 44.8467865]}, "type": "Feature", "id": null, "properties": {"province": "Al", "city": "Tortona", "category": "Abbazie e chiese", "name": "Abbazia di Santa Maria (Rivalta Scrivia)", "address": "Strada statale per Novi Ligure - Fraz. di Rivalta Scrivia "}}, {"geometry": {"type": "Point", "coordinates": [8.64144897, 45.01927567]}, "type": "Feature", "id": null, "properties": {"province": "Al", "city": "Valenza", "category": "Abbazie e chiese", "name": "Duomo di Santa Maria Maggiore (Valenza)", "address": "Piazza XXXI Martiri "}}, {"geometry": {"type": "Point", "coordinates": [8.39675713, 45.0104866]}, "type": "Feature", "id": null, "properties": {"province": "Al", "city": "Vignale Monferrato", "category": "Architetture notevoli", "name": "Palazzo Callori (Vignale Monferrato)", "address": "Piazza del Popolo 12"}}, {"geometry": {"type": "Point", "coordinates": [8.16907597, 45.07271576]}, "type": "Feature", "id": null, "properties": {"province": "Al", "city": "Villadeati", "category": "Architetture notevoli", "name": "Villa-Castello (Villadeati)", "address": "Via Carlo Lachello 6"}}, {"geometry": {"type": "Point", "coordinates": [7.78183222, 45.22253799]}, "type": "Feature", "id": null, "properties": {"province": "To", "city": "San Benigno Canavese", "category": "Abbazie e chiese", "name": "Abbazia di Fruttuaria (San Benigno Canavese)", "address": "Piazza Cardinale delle Lanze "}}, {"geometry": {"type": "Point", "coordinates": [7.18101168, 45.12892532]}, "type": "Feature", "id": null, "properties": {"province": "To", "city": "San Giorio di Susa", "category": "Abbazie e chiese", "name": "Cappella del Conte (San Giorio di Susa)", "address": "Via Castello 1"}}, {"geometry": {"type": "Point", "coordinates": [7.68697309, 45.07061005]}, "type": "Feature", "id": null, "properties": {"province": "To", "city": "Torino", "category": "Architetture notevoli", "name": "Biblioteca Reale (Torino)", "address": "Piazza Castello 191"}}, {"geometry": {"type": "Point", "coordinates": [7.68579531, 45.0520134]}, "type": "Feature", "id": null, "properties": {"province": "To", "city": "Torino", "category": "Architetture notevoli", "name": "Promotrice delle Belle Arti (Torino)", "address": "Viale Crivelli "}}, {"geometry": {"type": "Point", "coordinates": [8.54576588, 46.13144684]}, "type": "Feature", "id": null, "properties": {"province": "Vb", "city": "Re", "category": "Abbazie e chiese", "name": "Santuario della Madonna di Re (Re)", "address": "Via Locarno 4"}}, {"geometry": {"type": "Point", "coordinates": [8.29631996, 44.75429916]}, "type": "Feature", "id": null, "properties": {"province": "At", "city": "San Marzano Oliveto", "category": "Castelli", "name": "Castello di San Marzano Oliveto", "address": "Via Umberto I "}}, {"geometry": {"type": "Point", "coordinates": [8.11475277, 45.66648102]}, "type": "Feature", "id": null, "properties": {"province": "Bi", "city": "Trivero", "category": "Giardini e dimore storiche", "name": "Oasi Zegna (Trivero)", "address": "SS Panoramica Zegna "}}, {"geometry": {"type": "Point", "coordinates": [8.55722332, 45.76266098]}, "type": "Feature", "id": null, "properties": {"province": "No", "city": "Arona", "category": "Giardini e dimore storiche", "name": "Villa Ponti (Arona)", "address": "Via San Carlo 63"}}, {"geometry": {"type": "Point", "coordinates": [8.54567528, 45.76195908]}, "type": "Feature", "id": null, "properties": {"province": "No", "city": "Arona", "category": "Architetture notevoli", "name": "San Carlone (Arona)", "address": "Belvedere San Carlo "}}, {"geometry": {"type": "Point", "coordinates": [7.87120867, 45.46180725]}, "type": "Feature", "id": null, "properties": {"province": "To", "city": "Ivrea", "category": "Architetture notevoli", "name": "Archivio Storico Olivetti (Ivrea)", "address": "Via Miniere 31"}}, {"geometry": {"type": "Point", "coordinates": [7.99118423, 45.04105377]}, "type": "Feature", "id": null, "properties": {"province": "At", "city": "Castelnuovo Don Bosco", "category": "Architetture notevoli", "name": "Torre e Cappella dei Rivalba (Castelnuovo Don Bosco)", "address": "Frazione Mondonio "}}, {"geometry": {"type": "Point", "coordinates": [8.43048096, 45.78672409]}, "type": "Feature", "id": null, "properties": {"province": "No", "city": "Ameno", "category": "Abbazie e chiese", "name": "Santuario Madonna della Bocciola (Ameno)", "address": "Frazione Vacciago "}}, {"geometry": {"type": "Point", "coordinates": [8.6189961, 45.4456063]}, "type": "Feature", "id": null, "properties": {"province": "No", "city": "Novara", "category": "Abbazie e chiese", "name": "Battistero di Novara", "address": "Piazza della Repubblica "}}, {"geometry": {"type": "Point", "coordinates": [8.61914158, 45.44906235]}, "type": "Feature", "id": null, "properties": {"province": "No", "city": "Novara", "category": "Abbazie e chiese", "name": "Basilica di S. Gaudenzio (Novara)", "address": "Via G. Ferrari 20"}}, {"geometry": {"type": "Point", "coordinates": [8.61697865, 45.4450798]}, "type": "Feature", "id": null, "properties": {"province": "No", "city": "Novara", "category": "Castelli", "name": "Castello di Novara", "address": "Piazza dei Martiri "}}, {"geometry": {"type": "Point", "coordinates": [8.62363052, 45.60227203]}, "type": "Feature", "id": null, "properties": {"province": "No", "city": "Oleggio", "category": "Abbazie e chiese", "name": "Chiesa di S. Michele (Oleggio)", "address": "Via Mezzomerico "}}, {"geometry": {"type": "Point", "coordinates": [8.39498043, 45.62875748]}, "type": "Feature", "id": null, "properties": {"province": "No", "city": "Romagnano Sesia", "category": "Architetture notevoli", "name": "Cantina dei Santi (Romagnano Sesia)", "address": "Contrada della Badia "}}, {"geometry": {"type": "Point", "coordinates": [8.40594769, 45.79818344]}, "type": "Feature", "id": null, "properties": {"province": "No", "city": "Orta San Giulio", "category": "Architetture notevoli", "name": "Palazzo della Comunit\u00e0 (Orta San Giulio)", "address": "Piazza Motta "}}, {"geometry": {"type": "Point", "coordinates": [8.69736195, 46.06155014]}, "type": "Feature", "id": null, "properties": {"province": "Vb", "city": "Cannobio", "category": "Architetture notevoli", "name": "Palazzo della Ragione (Cannobio)", "address": "Via Giovanola "}}, {"geometry": {"type": "Point", "coordinates": [8.29073715, 46.11650467]}, "type": "Feature", "id": null, "properties": {"province": "Vb", "city": "Domodossola", "category": "Abbazie e chiese", "name": "Collegiata dei S.S. Gervasio e Protasio (Domodossola)", "address": "Piazza Chiesa "}}, {"geometry": {"type": "Point", "coordinates": [8.36915112, 45.79236221]}, "type": "Feature", "id": null, "properties": {"province": "Vb", "city": "Madonna del Sasso", "category": "Abbazie e chiese", "name": "Santuario (Madonna del Sasso)", "address": "Via Giuseppe Frua 6"}}, {"geometry": {"type": "Point", "coordinates": [8.42202282, 45.32791138]}, "type": "Feature", "id": null, "properties": {"province": "Vc", "city": "Vercelli", "category": "Abbazie e chiese", "name": "Cattedrale di Sant'Eusebio (Vercelli)", "address": "Via Monte Piet\u00e0 24"}}, {"geometry": {"type": "Point", "coordinates": [8.61853123, 45.44595337]}, "type": "Feature", "id": null, "properties": {"province": "No", "city": "Novara", "category": "Architetture notevoli", "name": "Broletto (Novara)", "address": "Via Fratelli Rosselli 20"}}, {"geometry": {"type": "Point", "coordinates": [8.41679859, 45.32880783]}, "type": "Feature", "id": null, "properties": {"province": "Vc", "city": "Vercelli", "category": "Abbazie e chiese", "name": "Basilica di S. Andrea (Vercelli)", "address": "Piazza Roma 35"}}, {"geometry": {"type": "Point", "coordinates": [8.41705704, 45.32912445]}, "type": "Feature", "id": null, "properties": {"province": "Vc", "city": "Vercelli", "category": "Architetture notevoli", "name": "Ospedale Maggiore (Vercelli)", "address": "Piazza Roma "}}, {"geometry": {"type": "Point", "coordinates": [8.42897606, 45.32470322]}, "type": "Feature", "id": null, "properties": {"province": "Vc", "city": "Vercelli", "category": "Abbazie e chiese", "name": "Chiesa di Santa Chiara (Vercelli)", "address": "Corso Libert\u00e0 300"}}, {"geometry": {"type": "Point", "coordinates": [8.42306137, 45.32400513]}, "type": "Feature", "id": null, "properties": {"province": "Vc", "city": "Vercelli", "category": "Abbazie e chiese", "name": "Chiesa di San Paolo (Vercelli)", "address": "Piazza Municipio "}}, {"geometry": {"type": "Point", "coordinates": [0.0, 0.0]}, "type": "Feature", "id": null, "properties": {"province": "Vc", "city": "Vercelli", "category": "Abbazie e chiese", "name": "Chiesa di San Cristoforo (Vercelli)", "address": "Via S. Cristoforo 6"}}, {"geometry": {"type": "Point", "coordinates": [8.42251301, 45.32657242]}, "type": "Feature", "id": null, "properties": {"province": "Vc", "city": "Vercelli", "category": "Architetture notevoli", "name": "Casa Alciati (Vercelli)", "address": "Via Verdi 30"}}, {"geometry": {"type": "Point", "coordinates": [8.25237083, 45.81692886]}, "type": "Feature", "id": null, "properties": {"province": "Vc", "city": "Varallo", "category": "Abbazie e chiese", "name": "Chiesa di Santa Maria delle Grazie (Varallo)", "address": "Piazza Gaudenzio Ferrari 6"}}, {"geometry": {"type": "Point", "coordinates": [8.00788403, 45.59819412]}, "type": "Feature", "id": null, "properties": {"province": "Bi", "city": "Biella", "category": "Sacri Monti", "name": "Sacro Monte di Oropa", "address": "Via Santuario d\u0092Oropa 480"}}, {"geometry": {"type": "Point", "coordinates": [7.60443544, 45.23336029]}, "type": "Feature", "id": null, "properties": {"province": "To", "city": "Ciri\u00e8", "category": "Abbazie e chiese", "name": "Duomo di San Giovanni Battista (Ciri\u00e8)", "address": "Via San Ciriaco 32"}}, {"geometry": {"type": "Point", "coordinates": [7.60366201, 45.23208237]}, "type": "Feature", "id": null, "properties": {"province": "To", "city": "Ciri\u00e8", "category": "Architetture notevoli", "name": "Palazzo D'Oria (Ciri\u00e8)", "address": "Corso Martiri della Libert\u00e0 33"}}, {"geometry": {"type": "Point", "coordinates": [8.04456615, 45.14773178]}, "type": "Feature", "id": null, "properties": {"province": "To", "city": "Cavagnolo", "category": "Abbazie e chiese", "name": "Abbazia di Santa Fede (Cavagnolo)", "address": "Via Santa Fede 92"}}, {"geometry": {"type": "Point", "coordinates": [7.88723612, 45.11830521]}, "type": "Feature", "id": null, "properties": {"province": "To", "city": "Cinzano", "category": "Castelli", "name": "Castello di Cinzano", "address": "Vicolo Castello "}}, {"geometry": {"type": "Point", "coordinates": [8.01642323, 45.15330124]}, "type": "Feature", "id": null, "properties": {"province": "To", "city": "Monteu da Po", "category": "Architetture notevoli", "name": "Area Archeologica di Industria (Monteu da Po)", "address": "Corso Industria "}}, {"geometry": {"type": "Point", "coordinates": [7.40389585, 45.28918076]}, "type": "Feature", "id": null, "properties": {"province": "To", "city": "Pessinetto", "category": "Abbazie e chiese", "name": "Santuario di Sant'Ignazio (Pessinetto)", "address": "Localit\u00e0 Monte Bastia "}}, {"geometry": {"type": "Point", "coordinates": [7.72851658, 45.332798]}, "type": "Feature", "id": null, "properties": {"province": "To", "city": "Rivarolo Canavese", "category": "Castelli", "name": "Castello di Malgr\u00e0 (Rivarolo Canavese)", "address": "Via Meaglia 6"}}, {"geometry": {"type": "Point", "coordinates": [7.34992313, 44.8687973]}, "type": "Feature", "id": null, "properties": {"province": "To", "city": "Pinerolo", "category": "Giardini e dimore storiche", "name": "Parco di Villa Doria \"Il Torrione\" (Pinerolo)", "address": "Via Galoppatoio 20"}}, {"geometry": {"type": "Point", "coordinates": [7.77658892, 45.37239075]}, "type": "Feature", "id": null, "properties": {"province": "To", "city": "Agli\u00e8", "category": "Architetture notevoli", "name": "Villa \"Il Meleto\" (Agli\u00e8)", "address": "Via Meleto "}}, {"geometry": {"type": "Point", "coordinates": [8.04547119, 45.5656662]}, "type": "Feature", "id": null, "properties": {"province": "Bi", "city": "Biella", "category": "Architetture notevoli", "name": "Palazzo Cisterna (Biella)", "address": "Piazza Cisterna "}}, {"geometry": {"type": "Point", "coordinates": [8.04538441, 45.56441879]}, "type": "Feature", "id": null, "properties": {"province": "Bi", "city": "Biella", "category": "Architetture notevoli", "name": "Palazzo La Marmora (Biella)", "address": "Corso del Piazzo 19"}}, {"geometry": {"type": "Point", "coordinates": [0.0, 0.0]}, "type": "Feature", "id": null, "properties": {"province": "Bi", "city": "Biella", "category": "Architetture notevoli", "name": "Casa Teccio (Biella)", "address": "Piazza Cisterna "}}, {"geometry": {"type": "Point", "coordinates": [8.05410099, 45.56636429]}, "type": "Feature", "id": null, "properties": {"province": "Bi", "city": "Biella", "category": "Abbazie e chiese", "name": "Battistero di San Giovanni Battista (Biella)", "address": "Piazza del Battistero "}}, {"geometry": {"type": "Point", "coordinates": [8.05422688, 45.56690598]}, "type": "Feature", "id": null, "properties": {"province": "Bi", "city": "Biella", "category": "Abbazie e chiese", "name": "Chiesa della SS. Trinit\u00e0 (Biella)", "address": "Via Duomo 1"}}, {"geometry": {"type": "Point", "coordinates": [8.04964161, 45.56373596]}, "type": "Feature", "id": null, "properties": {"province": "Bi", "city": "Biella", "category": "Abbazie e chiese", "name": "Chiesa di San Sebastiano (Biella)", "address": "Via De Fango Beato Agostino 4"}}, {"geometry": {"type": "Point", "coordinates": [8.06974792, 45.5371933]}, "type": "Feature", "id": null, "properties": {"province": "Bi", "city": "Gaglianico", "category": "Castelli", "name": "Castello di Gaglianico", "address": "Via Carlo Felice Trossi 137"}}, {"geometry": {"type": "Point", "coordinates": [8.05406094, 45.61240387]}, "type": "Feature", "id": null, "properties": {"province": "Bi", "city": "Andorno Micca", "category": "Abbazie e chiese", "name": "Chiesa di San Lorenzo (Andorno Micca)", "address": "Piazza Papa Giovanni "}}, {"geometry": {"type": "Point", "coordinates": [8.21168423, 45.67068481]}, "type": "Feature", "id": null, "properties": {"province": "Bi", "city": "Pray", "category": "Architetture notevoli", "name": "La Fabbrica della Ruota (Pray)", "address": "Regione Vallefredda 1"}}, {"geometry": {"type": "Point", "coordinates": [8.14642525, 45.65921021]}, "type": "Feature", "id": null, "properties": {"province": "Bi", "city": "Trivero", "category": "Abbazie e chiese", "name": "Santuario di Nostra Signora della Brughiera (Trivero)", "address": "Localit\u00e0 Brughiera "}}, {"geometry": {"type": "Point", "coordinates": [8.09169769, 45.58769226]}, "type": "Feature", "id": null, "properties": {"province": "Bi", "city": "Zumaglia", "category": "Castelli", "name": "Castello dei Fieschi (Zumaglia)", "address": "Via Castello "}}, {"geometry": {"type": "Point", "coordinates": [8.03414345, 44.74074554]}, "type": "Feature", "id": null, "properties": {"province": "Cn", "city": "Guarene", "category": "Architetture notevoli", "name": "Palazzo Re Rebaudengo (Guarene)", "address": "Piazza del Municipio "}}, {"geometry": {"type": "Point", "coordinates": [7.48600721, 44.64448929]}, "type": "Feature", "id": null, "properties": {"province": "Cn", "city": "Saluzzo", "category": "Architetture notevoli", "name": "Casa Cavassa (Saluzzo)", "address": "Via San Giovanni 5"}}, {"geometry": {"type": "Point", "coordinates": [7.55016041, 44.39465332]}, "type": "Feature", "id": null, "properties": {"province": "Cn", "city": "Cuneo", "category": "Abbazie e chiese", "name": "Ex Chiesa di San Francesco (Cuneo)", "address": "Via Santa Maria 10"}}, {"geometry": {"type": "Point", "coordinates": [7.54849005, 44.39123917]}, "type": "Feature", "id": null, "properties": {"province": "Cn", "city": "Cuneo", "category": "Abbazie e chiese", "name": "Cattedrale di Santa Maria del Bosco (Cuneo)", "address": "Via Seminario 3"}}, {"geometry": {"type": "Point", "coordinates": [7.55179739, 44.39159775]}, "type": "Feature", "id": null, "properties": {"province": "Cn", "city": "Cuneo", "category": "Architetture notevoli", "name": "Palazzo Audifreddi (Cuneo)", "address": "Via Cacciatori delle Alpi 9"}}, {"geometry": {"type": "Point", "coordinates": [8.03694153, 44.70041275]}, "type": "Feature", "id": null, "properties": {"province": "Cn", "city": "Alba", "category": "Abbazie e chiese", "name": "Cattedrale di San Lorenzo Martire (Alba)", "address": "Via Vida 1"}}, {"geometry": {"type": "Point", "coordinates": [7.17368507, 44.30657196]}, "type": "Feature", "id": null, "properties": {"province": "Cn", "city": "Vinadio", "category": "Abbazie e chiese", "name": "Santuario di Sant'Anna (Vinadio)", "address": "Frazione Sant'Anna 12010"}}, {"geometry": {"type": "Point", "coordinates": [7.85455894, 44.69958496]}, "type": "Feature", "id": null, "properties": {"province": "Cn", "city": "Bra", "category": "Architetture notevoli", "name": "Palazzo Traversa (Bra)", "address": "Via Parpera 9"}}, {"geometry": {"type": "Point", "coordinates": [7.80688524, 44.71458817]}, "type": "Feature", "id": null, "properties": {"province": "Cn", "city": "Bra", "category": "Abbazie e chiese", "name": "Chiesa di Santa Maria degli Angeli (Bra)", "address": "Piazza XX Settembre "}}, {"geometry": {"type": "Point", "coordinates": [7.80688524, 44.71458817]}, "type": "Feature", "id": null, "properties": {"province": "Cn", "city": "Bra", "category": "Architetture notevoli", "name": "Zizzola (Bra)", "address": "Colle Monteguglielmo "}}, {"geometry": {"type": "Point", "coordinates": [7.85360289, 44.69901276]}, "type": "Feature", "id": null, "properties": {"province": "Cn", "city": "Bra", "category": "Abbazie e chiese", "name": "Chiesa di Santa Chiara (Bra)", "address": "Via Barbacana "}}, {"geometry": {"type": "Point", "coordinates": [7.85453653, 44.69781876]}, "type": "Feature", "id": null, "properties": {"province": "Cn", "city": "Bra", "category": "Architetture notevoli", "name": "Palazzo Municipale (Bra)", "address": "Piazza Caduti Libert\u00e0 "}}, {"geometry": {"type": "Point", "coordinates": [7.85538816, 44.69714355]}, "type": "Feature", "id": null, "properties": {"province": "Cn", "city": "Bra", "category": "Architetture notevoli", "name": "Porticato dell'Ala  (Bra)", "address": "Corso Garibaldi "}}, {"geometry": {"type": "Point", "coordinates": [7.86031961, 44.65118408]}, "type": "Feature", "id": null, "properties": {"province": "Cn", "city": "Cherasco", "category": "Abbazie e chiese", "name": "Chiesa di San Pietro (Cherasco)", "address": "Via della Pace "}}, {"geometry": {"type": "Point", "coordinates": [7.85722065, 44.64950943]}, "type": "Feature", "id": null, "properties": {"province": "Cn", "city": "Cherasco", "category": "Castelli", "name": "Castello di Cherasco", "address": "Viale Salmatoris "}}, {"geometry": {"type": "Point", "coordinates": [7.85775185, 44.65111923]}, "type": "Feature", "id": null, "properties": {"province": "Cn", "city": "Cherasco", "category": "Abbazie e chiese", "name": "Sinagoga di Cherasco", "address": "Via Marconi 4"}}, {"geometry": {"type": "Point", "coordinates": [7.72568941, 44.54872894]}, "type": "Feature", "id": null, "properties": {"province": "Cn", "city": "Fossano", "category": "Abbazie e chiese", "name": "Cattedrale di Santa Maria e San Giovenale (Fossano)", "address": "Via Vescovado "}}, {"geometry": {"type": "Point", "coordinates": [7.81775999, 44.40497589]}, "type": "Feature", "id": null, "properties": {"province": "Cn", "city": "Mondov\u00ec", "category": "Abbazie e chiese", "name": "Cattedrale di San Donato (Mondov\u00ec)", "address": "Piazza Duomo 7"}}, {"geometry": {"type": "Point", "coordinates": [0.0, 0.0]}, "type": "Feature", "id": null, "properties": {"province": "Cn", "city": "Saluzzo", "category": "Abbazie e chiese", "name": "Cattedrale di Maria Vergine Assunta (Saluzzo)", "address": "Piazza Garibaldi 1"}}, {"geometry": {"type": "Point", "coordinates": [7.49038696, 44.64838409]}, "type": "Feature", "id": null, "properties": {"province": "Cn", "city": "Saluzzo", "category": "Architetture notevoli", "name": "Palazzo del Municipio (Saluzzo)", "address": "Via San Giovanni 1"}}, {"geometry": {"type": "Point", "coordinates": [0.0, 0.0]}, "type": "Feature", "id": null, "properties": {"province": "Cn", "city": "Cuneo", "category": "Abbazie e chiese", "name": "Santuario di Santa Maria degli Angeli (Cuneo)", "address": "Viale degli Angeli 1"}}, {"geometry": {"type": "Point", "coordinates": [7.48745537, 44.64245224]}, "type": "Feature", "id": null, "properties": {"province": "Cn", "city": "Saluzzo", "category": "Castelli", "name": "La Castiglia - Castello dei Marchesi (Saluzzo)", "address": "Piazza Castello "}}, {"geometry": {"type": "Point", "coordinates": [7.48963213, 44.64868546]}, "type": "Feature", "id": null, "properties": {"province": "Cn", "city": "Saluzzo", "category": "Abbazie e chiese", "name": "Chiesa di San Giovanni (Saluzzo)", "address": "Via San Giovanni 9"}}, {"geometry": {"type": "Point", "coordinates": [7.5502882, 44.39331055]}, "type": "Feature", "id": null, "properties": {"province": "Cn", "city": "Cuneo", "category": "Abbazie e chiese", "name": "Chiesa di Santa Croce (Cuneo)", "address": "Via Fratelli Vaschetto "}}, {"geometry": {"type": "Point", "coordinates": [7.55217743, 44.39229965]}, "type": "Feature", "id": null, "properties": {"province": "Cn", "city": "Cuneo", "category": "Abbazie e chiese", "name": "Sinagoga di Cuneo", "address": "Via Mondov\u00ec "}}, {"geometry": {"type": "Point", "coordinates": [7.55217743, 44.39229965]}, "type": "Feature", "id": null, "properties": {"province": "Cn", "city": "Cuneo", "category": "Abbazie e chiese", "name": "Chiesa di San Sebastiano (Cuneo)", "address": "Via Mondov\u00ec "}}, {"geometry": {"type": "Point", "coordinates": [7.5530327, 44.3937793]}, "type": "Feature", "id": null, "properties": {"province": "Cn", "city": "Cuneo", "category": "Abbazie e chiese", "name": "Chiesa di Sant'Ambrogio (Cuneo)", "address": "Via Roma 9"}}, {"geometry": {"type": "Point", "coordinates": [0.0, 0.0]}, "type": "Feature", "id": null, "properties": {"province": "Cn", "city": "Alba", "category": "Abbazie e chiese", "name": "Chiesa di San Domenico (Alba)", "address": "Via Calissano "}}, {"geometry": {"type": "Point", "coordinates": [8.03407383, 44.70079803]}, "type": "Feature", "id": null, "properties": {"province": "Cn", "city": "Alba", "category": "Abbazie e chiese", "name": "Chiesa di San Giovanni Battista (Alba)", "address": "Piazza Pertinace Elvio 4"}}, {"geometry": {"type": "Point", "coordinates": [7.48130941, 44.64738083]}, "type": "Feature", "id": null, "properties": {"province": "Cn", "city": "Saluzzo", "category": "Architetture notevoli", "name": "Palazzo delle Arti (Saluzzo)", "address": "Salita al Castello "}}, {"geometry": {"type": "Point", "coordinates": [7.92660141, 44.64097214]}, "type": "Feature", "id": null, "properties": {"province": "Cn", "city": "La Morra", "category": "Architetture notevoli", "name": "Cappella delle Brunate (La Morra)", "address": "Borgata Cerequio "}}, {"geometry": {"type": "Point", "coordinates": [7.05492973, 45.03386688]}, "type": "Feature", "id": null, "properties": {"province": "To", "city": "Fenestrelle", "category": "Forti", "name": "Forte di Fenestrelle", "address": "Via del Forte 1"}}, {"geometry": {"type": "Point", "coordinates": [6.7073164, 45.08176804]}, "type": "Feature", "id": null, "properties": {"province": "To", "city": "Bardonecchia", "category": "Forti", "name": "Forte Bramafam", "address": "Strada nazionale al Castello "}}, {"geometry": {"type": "Point", "coordinates": [6.93031502, 45.09860992]}, "type": "Feature", "id": null, "properties": {"province": "To", "city": "Exilles", "category": "Forti", "name": "Forte di Exilles", "address": " "}}, {"geometry": {"type": "Point", "coordinates": [8.80571747, 44.69112015]}, "type": "Feature", "id": null, "properties": {"province": "Al", "city": "Gavi", "category": "Forti", "name": "Forte di Gavi", "address": "Via al Forte 14"}}, {"geometry": {"type": "Point", "coordinates": [7.17368507, 44.30657196]}, "type": "Feature", "id": null, "properties": {"province": "Cn", "city": "Vinadio", "category": "Forti", "name": "Forte di Vinadio", "address": "Forte Albertino "}}, {"geometry": {"type": "Point", "coordinates": [7.693223, 45.06948853]}, "type": "Feature", "id": null, "properties": {"province": "To", "city": "Torino", "category": "Architetture notevoli", "name": "Mole Antonelliana (Torino)", "address": "Via Montebello 22 "}}, {"geometry": {"type": "Point", "coordinates": [7.68428516, 45.0749054]}, "type": "Feature", "id": null, "properties": {"province": "To", "city": "Torino", "category": "Architetture notevoli", "name": "Porte Palatine (Torino)", "address": "Piazza Cesare Augusto "}}, {"geometry": {"type": "Point", "coordinates": [8.04881287, 44.98644638]}, "type": "Feature", "id": null, "properties": {"province": "At", "city": "Cortazzone", "category": "Abbazie e chiese", "name": "Chiesa di San Secondo (Cortazzone)", "address": "Via Mongiglietto "}}, {"geometry": {"type": "Point", "coordinates": [7.61053848, 45.14187241]}, "type": "Feature", "id": null, "properties": {"province": "To", "city": "Venaria Reale", "category": "Residenze Reali", "name": "Castello della Mandria (Venaria Reale)", "address": "Viale Carlo Emanuele II 256"}}, {"geometry": {"type": "Point", "coordinates": [7.38455296, 44.77955627]}, "type": "Feature", "id": null, "properties": {"province": "To", "city": "Cavour", "category": "Abbazie e chiese", "name": "Abbazia di Santa Maria (Cavour)", "address": "Via Saluzzo 74"}}, {"geometry": {"type": "Point", "coordinates": [8.27588081, 45.09400177]}, "type": "Feature", "id": null, "properties": {"province": "Al", "city": "Serralunga di Crea", "category": "Sacri Monti", "name": "Sacro Monte di Crea (Serralunga di Crea)", "address": "Cascina Valperone, 1 - Ponzano Monferrato 1"}}, {"geometry": {"type": "Point", "coordinates": [8.21537971, 45.11977386]}, "type": "Feature", "id": null, "properties": {"province": "Al", "city": "Camino", "category": "Giardini e dimore storiche", "name": "Parco del Castello di Camino", "address": "Via al Castello 26"}}, {"geometry": {"type": "Point", "coordinates": [8.59638882, 45.06407166]}, "type": "Feature", "id": null, "properties": {"province": "Al", "city": "Pomaro Monferrato", "category": "Giardini e dimore storiche", "name": "Parco del Castello di Pomaro", "address": "Via Marchesi Dalla Valle 4"}}, {"geometry": {"type": "Point", "coordinates": [8.44610691, 45.08751297]}, "type": "Feature", "id": null, "properties": {"province": "Al", "city": "Terruggia", "category": "Giardini e dimore storiche", "name": "Giardino Il Roseto (Terruggia)", "address": "Strada Colombaro 10"}}, {"geometry": {"type": "Point", "coordinates": [8.64177322, 44.63924408]}, "type": "Feature", "id": null, "properties": {"province": "Al", "city": "Ovada", "category": "Giardini e dimore storiche", "name": "Parco di Villa Gabrieli (Ovada)", "address": "Via Giosu\u00e8 Carducci "}}, {"geometry": {"type": "Point", "coordinates": [8.04538441, 45.56441879]}, "type": "Feature", "id": null, "properties": {"province": "Bi", "city": "Biella", "category": "Giardini e dimore storiche", "name": "Giardino di Palazzo La Marmora (Biella)", "address": "Corso del Piazzo 19"}}, {"geometry": {"type": "Point", "coordinates": [8.03859043, 45.57813644]}, "type": "Feature", "id": null, "properties": {"province": "Bi", "city": "Biella", "category": "Giardini e dimore storiche", "name": "Giardino Sella del Colle di San Gerolamo (Biella)", "address": "Regione S. Gerolamo 1"}}, {"geometry": {"type": "Point", "coordinates": [7.3029108, 44.75304031]}, "type": "Feature", "id": null, "properties": {"province": "Cn", "city": "Bagnolo Piemonte", "category": "Giardini e dimore storiche", "name": "Parco del Castello di Bagnolo", "address": "Via Palazzo 23"}}, {"geometry": {"type": "Point", "coordinates": [8.03287983, 44.73921967]}, "type": "Feature", "id": null, "properties": {"province": "Cn", "city": "Guarene", "category": "Giardini e dimore storiche", "name": "Giardino del Castello di Guarene", "address": "Via Alessandro Roero 2"}}, {"geometry": {"type": "Point", "coordinates": [8.10367775, 44.80727386]}, "type": "Feature", "id": null, "properties": {"province": "Cn", "city": "Govone", "category": "Giardini e dimore storiche", "name": "Parco del Castello di Govone", "address": "Piazza Roma 1"}}, {"geometry": {"type": "Point", "coordinates": [7.48481941, 44.61133957]}, "type": "Feature", "id": null, "properties": {"province": "Cn", "city": "Manta", "category": "Giardini e dimore storiche", "name": "Parco del Castello della Manta", "address": "Castello della Manta "}}, {"geometry": {"type": "Point", "coordinates": [7.67662001, 44.7686615]}, "type": "Feature", "id": null, "properties": {"province": "Cn", "city": "Racconigi", "category": "Giardini e dimore storiche", "name": "Parco del Castello Reale di Racconigi", "address": "Via Morosini 3"}}, {"geometry": {"type": "Point", "coordinates": [7.46878338, 44.52732468]}, "type": "Feature", "id": null, "properties": {"province": "Cn", "city": "Busca", "category": "Giardini e dimore storiche", "name": "Parco del Castello del Roccolo (Busca)", "address": "Strada Romantica "}}, {"geometry": {"type": "Point", "coordinates": [7.93996477, 44.71956253]}, "type": "Feature", "id": null, "properties": {"province": "Cn", "city": "Monticello d'Alba", "category": "Giardini e dimore storiche", "name": "Parco del Castello di Monticello d\u0092Alba", "address": "Via Castello 1"}}, {"geometry": {"type": "Point", "coordinates": [7.86031961, 44.65118408]}, "type": "Feature", "id": null, "properties": {"province": "Cn", "city": "Cherasco", "category": "Giardini e dimore storiche", "name": "Giardino della Chiesa San Pietro (Cherasco)", "address": "Via della Pace "}}, {"geometry": {"type": "Point", "coordinates": [7.48750401, 44.63216782]}, "type": "Feature", "id": null, "properties": {"province": "Cn", "city": "Saluzzo", "category": "Giardini e dimore storiche", "name": "Parco di Villa del Belvedere (Saluzzo)", "address": "Via San Bernardino "}}, {"geometry": {"type": "Point", "coordinates": [7.64966297, 44.78980637]}, "type": "Feature", "id": null, "properties": {"province": "Cn", "city": "Racconigi", "category": "Giardini e dimore storiche", "name": "Giardino della Tenuta \u0093I Berroni\u0094 (Racconigi)", "address": "Tenuta Berroni "}}, {"geometry": {"type": "Point", "coordinates": [8.55722332, 45.76266098]}, "type": "Feature", "id": null, "properties": {"province": "No", "city": "Arona", "category": "Giardini e dimore storiche", "name": "Giardino di Villa Ponti (Arona)", "address": "Via San Carlo 63"}}, {"geometry": {"type": "Point", "coordinates": [8.57251072, 45.83984756]}, "type": "Feature", "id": null, "properties": {"province": "Vb", "city": "Belgirate", "category": "Giardini e dimore storiche", "name": "Giardino di Villa De Fontana (Belgirate)", "address": " "}}, {"geometry": {"type": "Point", "coordinates": [8.40406322, 45.80318451]}, "type": "Feature", "id": null, "properties": {"province": "No", "city": "Orta San Giulio", "category": "Giardini e dimore storiche", "name": "Giardino di Villa Motta (Orta San Giulio)", "address": "Via Motta 24"}}, {"geometry": {"type": "Point", "coordinates": [7.76895237, 45.36210251]}, "type": "Feature", "id": null, "properties": {"province": "To", "city": "Agli\u00e8", "category": "Giardini e dimore storiche", "name": "Parco del Castello Ducale di Agli\u00e8", "address": "Piazza del Castello 2"}}, {"geometry": {"type": "Point", "coordinates": [7.7822113, 45.37422562]}, "type": "Feature", "id": null, "properties": {"province": "To", "city": "Agli\u00e8", "category": "Giardini e dimore storiche", "name": "Giardino Il Meleto (Agli\u00e8)", "address": "Via Meleto 23"}}, {"geometry": {"type": "Point", "coordinates": [7.94923496, 45.43475342]}, "type": "Feature", "id": null, "properties": {"province": "To", "city": "Caravino", "category": "Giardini e dimore storiche", "name": "Parco del Castello di Masino (Caravino)", "address": "Via Del Castello 1"}}, {"geometry": {"type": "Point", "coordinates": [7.93954229, 45.30506516]}, "type": "Feature", "id": null, "properties": {"province": "To", "city": "Mazz\u00e8", "category": "Giardini e dimore storiche", "name": "Parco del Castello di Mazz\u00e8", "address": "Via Castello 10"}}, {"geometry": {"type": "Point", "coordinates": [7.68613338, 45.00266266]}, "type": "Feature", "id": null, "properties": {"province": "To", "city": "Moncalieri", "category": "Giardini e dimore storiche", "name": "Parco del Castello Reale di Moncalieri", "address": "Via del Castello 2"}}, {"geometry": {"type": "Point", "coordinates": [7.90011835, 44.86193085]}, "type": "Feature", "id": null, "properties": {"province": "To", "city": "Pralormo", "category": "Giardini e dimore storiche", "name": "Parco del Castello di Pralormo", "address": "Via Umberto I 26"}}, {"geometry": {"type": "Point", "coordinates": [7.72851658, 45.332798]}, "type": "Feature", "id": null, "properties": {"province": "To", "city": "Rivarolo Canavese", "category": "Giardini e dimore storiche", "name": "Parco del Castello di Malgr\u00e0 (Rivarolo Canavese)", "address": "Via Meaglia 6"}}, {"geometry": {"type": "Point", "coordinates": [7.77355003, 44.94949722]}, "type": "Feature", "id": null, "properties": {"province": "To", "city": "Santena", "category": "Giardini e dimore storiche", "name": "Parco del Castello di Cavour (Santena)", "address": "Piazza Visconti Venosta 2"}}, {"geometry": {"type": "Point", "coordinates": [7.68674469, 45.07017899]}, "type": "Feature", "id": null, "properties": {"province": "To", "city": "Torino", "category": "Giardini e dimore storiche", "name": "Giardini di Palazzo Reale (Torino)", "address": "Piazzetta Reale 1"}}, {"geometry": {"type": "Point", "coordinates": [7.63876295, 45.0423317]}, "type": "Feature", "id": null, "properties": {"province": "To", "city": "Torino", "category": "Giardini e dimore storiche", "name": "Parco di Villa Rignon, ex Amoretti (Torino)", "address": "Corso Orbassano 200"}}, {"geometry": {"type": "Point", "coordinates": [7.63796043, 45.07544708]}, "type": "Feature", "id": null, "properties": {"province": "To", "city": "Torino", "category": "Giardini e dimore storiche", "name": "Parco di Villa La Tesoriera (Torino)", "address": "C.so Francia 186/192"}}, {"geometry": {"type": "Point", "coordinates": [7.71245432, 45.04597092]}, "type": "Feature", "id": null, "properties": {"province": "To", "city": "Torino", "category": "Giardini e dimore storiche", "name": "Giardino di Villa Abegg, ex Vigna di Madama Reale (Torino)", "address": "Strada Comunale di San Vito 65"}}, {"geometry": {"type": "Point", "coordinates": [7.69465065, 45.04729462]}, "type": "Feature", "id": null, "properties": {"province": "To", "city": "Torino", "category": "Giardini e dimore storiche", "name": "Parco della Rimembranza (Torino)", "address": "Str. San Vito/Revigliasco "}}, {"geometry": {"type": "Point", "coordinates": [7.67993402, 45.06330109]}, "type": "Feature", "id": null, "properties": {"province": "To", "city": "Torino", "category": "Giardini e dimore storiche", "name": "Giardino Sambuy (Torino)", "address": "Piazza Carlo Felice "}}, {"geometry": {"type": "Point", "coordinates": [7.68940306, 45.06256485]}, "type": "Feature", "id": null, "properties": {"province": "To", "city": "Torino", "category": "Giardini e dimore storiche", "name": "Giardini Cavour (Torino)", "address": "Piazza Cavour "}}, {"geometry": {"type": "Point", "coordinates": [7.69957161, 45.05761719]}, "type": "Feature", "id": null, "properties": {"province": "To", "city": "Torino", "category": "Giardini e dimore storiche", "name": "Giardino del Convitto Principessa Felicita di Savoia (Torino)", "address": "Via Principessa Felicita di Savoia "}}, {"geometry": {"type": "Point", "coordinates": [7.8911314, 45.30803299]}, "type": "Feature", "id": null, "properties": {"province": "To", "city": "Caluso", "category": "Giardini e dimore storiche", "name": "Giardino di Palazzo Valperga di Masino (Caluso)", "address": "P.zza Valperga 2"}}, {"geometry": {"type": "Point", "coordinates": [7.95830965, 45.16827774]}, "type": "Feature", "id": null, "properties": {"province": "To", "city": "San Sebastiano da Po", "category": "Giardini e dimore storiche", "name": "Parco del Castello di San Sebastiano da Po", "address": "P. zza Vecchio Municipio 1"}}, {"geometry": {"type": "Point", "coordinates": [8.99854374, 44.87636948]}, "type": "Feature", "id": null, "properties": {"province": "Al", "city": "Volpedo", "category": "Giardini e dimore storiche", "name": "La Cappelletta (Volpedo)", "address": "Via della Clementina 16"}}, {"geometry": {"type": "Point", "coordinates": [8.60119343, 44.62047577]}, "type": "Feature", "id": null, "properties": {"province": "Al", "city": "Molare", "category": "Giardini e dimore storiche", "name": "Palazzo Tornielli (Molare)", "address": "Piazza G.Tornielli 1"}}, {"geometry": {"type": "Point", "coordinates": [8.55626583, 45.9188652]}, "type": "Feature", "id": null, "properties": {"province": "Vb", "city": "Verbania", "category": "Giardini e dimore storiche", "name": "Giardino di Villa Rusconi-Clerici (Verbania Pallanza)", "address": "Via Vittorio Veneto 12 - 16"}}, {"geometry": {"type": "Point", "coordinates": [8.5646143, 45.92335892]}, "type": "Feature", "id": null, "properties": {"province": "Vb", "city": "Verbania", "category": "Giardini e dimore storiche", "name": "Giardino di Villa Eremitaggio (Verbania Pallanza)", "address": "Via Vittorio Veneto "}}, {"geometry": {"type": "Point", "coordinates": [8.63531303, 44.62963867]}, "type": "Feature", "id": null, "properties": {"province": "Al", "city": "Ovada", "category": "Giardini e dimore storiche", "name": "Giardino di Villa Schella (Ovada)", "address": "Strada per Molare 8"}}, {"geometry": {"type": "Point", "coordinates": [8.64691067, 44.67083359]}, "type": "Feature", "id": null, "properties": {"province": "Al", "city": "Rocca Grimalda", "category": "Giardini e dimore storiche", "name": "Giardino del Castello Malaspina (Rocca Grimalda)", "address": "Piazza Senatore Borgatta 2"}}, {"geometry": {"type": "Point", "coordinates": [8.45605278, 44.82665253]}, "type": "Feature", "id": null, "properties": {"province": "Al", "city": "Bergamasco", "category": "Giardini e dimore storiche", "name": "Giardino del Castello di Bergamasco", "address": "Via IV Novembre 15"}}, {"geometry": {"type": "Point", "coordinates": [8.6221199, 45.01663208]}, "type": "Feature", "id": null, "properties": {"province": "Al", "city": "Valenza", "category": "Giardini e dimore storiche", "name": "Parco di Villa Gropella (Valenza)", "address": "Strada Per Solero 8"}}, {"geometry": {"type": "Point", "coordinates": [8.55241299, 44.63973236]}, "type": "Feature", "id": null, "properties": {"province": "Al", "city": "Prasco", "category": "Giardini e dimore storiche", "name": "Parco del Castello di Prasco", "address": "Via Gallesio 1"}}, {"geometry": {"type": "Point", "coordinates": [8.39077473, 45.07484055]}, "type": "Feature", "id": null, "properties": {"province": "Al", "city": "Cella Monte", "category": "Giardini e dimore storiche", "name": "Giardino di Palazzo Arditi e Giardino dell'Ecomuseo \"Pietra da Cantoni\" (Cella Monte)", "address": "Via Barbano Dante 30"}}, {"geometry": {"type": "Point", "coordinates": [8.39008236, 45.07509613]}, "type": "Feature", "id": null, "properties": {"province": "Al", "city": "Cella Monte", "category": "Giardini e dimore storiche", "name": "Giardino di Palazzo Cosseta (Cella Monte)", "address": "Via Barbano Dante 36"}}, {"geometry": {"type": "Point", "coordinates": [7.98044586, 45.5703125]}, "type": "Feature", "id": null, "properties": {"province": "Bi", "city": "Sordevolo", "category": "Giardini e dimore storiche", "name": "Villa Cernigliaro (Sordevolo)", "address": "Via Clemente Vercellone 4"}}, {"geometry": {"type": "Point", "coordinates": [8.17843628, 44.78929901]}, "type": "Feature", "id": null, "properties": {"province": "At", "city": "Costigliole d'Asti", "category": "Giardini e dimore storiche", "name": "Giardino del Castello di Ror\u00e0 (Costigliole d\u1e40Asti)", "address": "Piazza Vittorio Emanuele II 10"}}, {"geometry": {"type": "Point", "coordinates": [8.0718832, 45.02508163]}, "type": "Feature", "id": null, "properties": {"province": "At", "city": "Piea", "category": "Giardini e dimore storiche", "name": "Parco del Castello di Piea", "address": "Piazza Italia 3"}}, {"geometry": {"type": "Point", "coordinates": [8.20163441, 44.9711647]}, "type": "Feature", "id": null, "properties": {"province": "At", "city": "Castell'Alfero", "category": "Giardini e dimore storiche", "name": "Roseto di Cascina Sorpresa (Castell\u0092Alfero)", "address": "Frazione Serra Perno "}}, {"geometry": {"type": "Point", "coordinates": [8.21459007, 44.86256027]}, "type": "Feature", "id": null, "properties": {"province": "At", "city": "Asti", "category": "Giardini e dimore storiche", "name": "Parco di Villa Badoglio (Asti)", "address": "Localit\u00e0 San Marzanotto "}}, {"geometry": {"type": "Point", "coordinates": [7.43445253, 44.62494659]}, "type": "Feature", "id": null, "properties": {"province": "Cn", "city": "Castellar", "category": "Giardini e dimore storiche", "name": "Parco del Castello dei Marchesi di Saluzzo (Castellar)", "address": "Via Cambiano "}}, {"geometry": {"type": "Point", "coordinates": [7.46251345, 44.4509201]}, "type": "Feature", "id": null, "properties": {"province": "Cn", "city": "Caraglio", "category": "Giardini e dimore storiche", "name": "Parco della Residenza Galleani (Caraglio)", "address": "Localit\u00e0 Palazzasso "}}, {"geometry": {"type": "Point", "coordinates": [7.5357275, 44.40423965]}, "type": "Feature", "id": null, "properties": {"province": "Cn", "city": "Cuneo", "category": "Giardini e dimore storiche", "name": "Giardino di Villa Oldofredi Tadini (Cuneo)", "address": "Via Ercole Oldofredi Tadini 19"}}, {"geometry": {"type": "Point", "coordinates": [7.29768085, 44.31510162]}, "type": "Feature", "id": null, "properties": {"province": "Cn", "city": "Demonte", "category": "Giardini e dimore storiche", "name": "Giardino di Palazzo Borelli (Demonte)", "address": "Via Martiri e Caduti per la Libert\u00e0 13"}}, {"geometry": {"type": "Point", "coordinates": [8.37928486, 45.63795853]}, "type": "Feature", "id": null, "properties": {"province": "No", "city": "Romagnano Sesia", "category": "Giardini e dimore storiche", "name": "Parco di Villa Caccia (Romagnano Sesia)", "address": "Viale Antonelli 1"}}, {"geometry": {"type": "Point", "coordinates": [7.39093542, 44.87638092]}, "type": "Feature", "id": null, "properties": {"province": "To", "city": "Buriasco", "category": "Giardini e dimore storiche", "name": "Giardino di Villa Sciolla \u0093Il Castelletto\u0094 (Buriasco)", "address": "Via Pinerolo "}}, {"geometry": {"type": "Point", "coordinates": [7.75777721, 44.42228699]}, "type": "Feature", "id": null, "properties": {"province": "Cn", "city": "Rocca de' Baldi", "category": "Giardini e dimore storiche", "name": "Giardino della Badia di Santa Maria e Parco del Castello (Rocca de' Baldi, Cuneo)", "address": "Piazza Morozzo 2"}}, {"geometry": {"type": "Point", "coordinates": [7.73156309, 45.07392502]}, "type": "Feature", "id": null, "properties": {"province": "To", "city": "Torino", "category": "Giardini e dimore storiche", "name": "Giardino di Villa d\u0092Agli\u00e8 (Torino)", "address": "Strada Villa d'Agli\u00e8 26"}}, {"geometry": {"type": "Point", "coordinates": [7.31003237, 44.87414169]}, "type": "Feature", "id": null, "properties": {"province": "To", "city": "San Secondo di Pinerolo", "category": "Giardini e dimore storiche", "name": "Parco del Castello di Miradolo (San Secondo di Pinerolo)", "address": "Via Cardonata 2"}}, {"geometry": {"type": "Point", "coordinates": [7.99276018, 44.79643631]}, "type": "Feature", "id": null, "properties": {"province": "Cn", "city": "Canale", "category": "Castelli", "name": "Castello di Malabaila (Canale)", "address": "Piazza Castello 1"}}, {"geometry": {"type": "Point", "coordinates": [7.53404331, 45.07077026]}, "type": "Feature", "id": null, "properties": {"province": "To", "city": "Rivoli", "category": "Giardini e dimore storiche", "name": "Parco del Castello di Rivoli \u0093San Grato\u0094", "address": "Corso Francia 98"}}, {"geometry": {"type": "Point", "coordinates": [7.51778126, 45.07141113]}, "type": "Feature", "id": null, "properties": {"province": "To", "city": "Rivoli", "category": "Giardini e dimore storiche", "name": "Giardino di Villa Colla (Rivoli)", "address": " "}}, {"geometry": {"type": "Point", "coordinates": [8.07895184, 44.40027618]}, "type": "Feature", "id": null, "properties": {"province": "Cn", "city": "Sale San Giovanni", "category": "Castelli", "name": "Castello Marchesi Incisa di Camerana (Sale San Giovanni)", "address": "Via Salita Alla Parrocchia 23"}}, {"geometry": {"type": "Point", "coordinates": [7.5095067, 45.06858826]}, "type": "Feature", "id": null, "properties": {"province": "To", "city": "Rivoli", "category": "Giardini e dimore storiche", "name": "Giardino di Villa Melano (Rivoli)", "address": "Via melano "}}, {"geometry": {"type": "Point", "coordinates": [8.25242519, 45.82025146]}, "type": "Feature", "id": null, "properties": {"province": "Vc", "city": "Varallo", "category": "Giardini e dimore storiche", "name": "Parco Pubblico \u0093Muntisel\u0094 (Varallo)", "address": "Via Fiume 1"}}, {"geometry": {"type": "Point", "coordinates": [7.53507423, 44.4042511]}, "type": "Feature", "id": null, "properties": {"province": "Cn", "city": "Cuneo", "category": "Giardini e dimore storiche", "name": "Villa Oldofredi Tadini (Cuneo)", "address": "Via Ercole Oldofredi Tadini 21"}}, {"geometry": {"type": "Point", "coordinates": [7.57523394, 44.73015976]}, "type": "Feature", "id": null, "properties": {"province": "Cn", "city": "Villanova Solaro", "category": "Castelli", "name": "Castello dei Solaro (Villanova Solaro)", "address": "Via Vitale 4"}}, {"geometry": {"type": "Point", "coordinates": [8.66787052, 45.35061646]}, "type": "Feature", "id": null, "properties": {"province": "No", "city": "Vespolate", "category": "Castelli", "name": "Castello di Vespolate", "address": "Largo Matteotti 22"}}, {"geometry": {"type": "Point", "coordinates": [8.53085136, 45.7498703]}, "type": "Feature", "id": null, "properties": {"province": "No", "city": "Oleggio Castello", "category": "Castelli", "name": "Castello dal Pozzo (Oleggio Castello)", "address": "via Dal Pozzo 24"}}, {"geometry": {"type": "Point", "coordinates": [8.40416336, 45.80268478]}, "type": "Feature", "id": null, "properties": {"province": "No", "city": "Orta San Giulio", "category": "Giardini e dimore storiche", "name": "Villa Motta (Orta San Giulio)", "address": "Via Motta 24"}}, {"geometry": {"type": "Point", "coordinates": [8.55626583, 45.9188652]}, "type": "Feature", "id": null, "properties": {"province": "Vb", "city": "Verbania", "category": "Giardini e dimore storiche", "name": "Villa Rusconi-Clerici (Verbania Pallanza)", "address": "Via Vittorio Veneto 12"}}, {"geometry": {"type": "Point", "coordinates": [7.45085478, 44.98814392]}, "type": "Feature", "id": null, "properties": {"province": "To", "city": "Piossasco", "category": "Giardini e dimore storiche", "name": "Casa Lajolo (Piossasco)", "address": "Via S. Vito 23"}}, {"geometry": {"type": "Point", "coordinates": [7.73254299, 45.05785751]}, "type": "Feature", "id": null, "properties": {"province": "To", "city": "Torino", "category": "Giardini e dimore storiche", "name": "Villa Maria (Torino)", "address": "Strada Valpiana 131"}}, {"geometry": {"type": "Point", "coordinates": [7.88349771, 45.35515594]}, "type": "Feature", "id": null, "properties": {"province": "To", "city": "Mercenasco", "category": "Castelli", "name": "Castello Benso (Mercenasco)", "address": "Via Giovanni XXIII 21"}}, {"geometry": {"type": "Point", "coordinates": [7.73156309, 45.07392502]}, "type": "Feature", "id": null, "properties": {"province": "To", "city": "Torino", "category": "Giardini e dimore storiche", "name": "Villa d'Agli\u00e8 (Torino)", "address": "Strada Villa d'Agli\u00e8 26"}}, {"geometry": {"type": "Point", "coordinates": [7.93131924, 45.15478134]}, "type": "Feature", "id": null, "properties": {"province": "To", "city": "San Sebastiano da Po", "category": "Castelli", "name": "Castello di San Sebastiano da Po", "address": "Via Novarina 9"}}, {"geometry": {"type": "Point", "coordinates": [7.83495426, 45.06850815]}, "type": "Feature", "id": null, "properties": {"province": "To", "city": "Pavarolo", "category": "Castelli", "name": "Castello di Pavarolo", "address": "Via Maestra 8"}}, {"geometry": {"type": "Point", "coordinates": [8.55615807, 45.91909409]}, "type": "Feature", "id": null, "properties": {"province": "Vb", "city": "Verbania", "category": "Giardini e dimore storiche", "name": "Villa Taranto (Verbania Pallanza)", "address": "Via Vittorio Veneto 11"}}, {"geometry": {"type": "Point", "coordinates": [8.5598402, 45.92405319]}, "type": "Feature", "id": null, "properties": {"province": "Vb", "city": "Verbania", "category": "Giardini e dimore storiche", "name": "Villa San Remigio (Verbania)", "address": "Via San Remigio "}}, {"geometry": {"type": "Point", "coordinates": [8.53916359, 45.88471603]}, "type": "Feature", "id": null, "properties": {"province": "Vb", "city": "Stresa", "category": "Giardini e dimore storiche", "name": "Villa Ducale (Stresa)", "address": "Corso Umberto I 15"}}, {"geometry": {"type": "Point", "coordinates": [8.56462002, 45.86967468]}, "type": "Feature", "id": null, "properties": {"province": "Vb", "city": "Stresa", "category": "Giardini e dimore storiche", "name": "Villa Pallavicino (Stresa)", "address": "Via Sempione Sud 61"}}, {"geometry": {"type": "Point", "coordinates": [8.65125656, 45.99608231]}, "type": "Feature", "id": null, "properties": {"province": "Vb", "city": "Oggebbio", "category": "Giardini e dimore storiche", "name": "Villa Anelli (Gonte di Oggebbio)", "address": "Via Vittorio Veneto 6"}}, {"geometry": {"type": "Point", "coordinates": [7.75213385, 44.33216476]}, "type": "Feature", "id": null, "properties": {"province": "Cn", "city": "Villanova Mondov\u00ec", "category": "Abbazie e chiese", "name": "Santuario di Santa Lucia (Villanova Mondov\u00ec)", "address": "Localit\u00e0 S. Lucia "}}, {"geometry": {"type": "Point", "coordinates": [7.17419481, 44.40015793]}, "type": "Feature", "id": null, "properties": {"province": "Cn", "city": "Castelmagno", "category": "Abbazie e chiese", "name": "Santuario di San Magno (Castelmagno)", "address": "Via Don Giacomo Mascarello 1"}}, {"geometry": {"type": "Point", "coordinates": [8.03479481, 44.69908142]}, "type": "Feature", "id": null, "properties": {"province": "Cn", "city": "Alba", "category": "Abbazie e chiese", "name": "Chiesa della Maddalena (Alba)", "address": "Via Maestra "}}, {"geometry": {"type": "Point", "coordinates": [8.62033939, 45.44597626]}, "type": "Feature", "id": null, "properties": {"province": "No", "city": "Novara", "category": "Abbazie e chiese", "name": "Cattedrale di Santa Maria Assunta (Novara)", "address": "Piazza Repubblica "}}, {"geometry": {"type": "Point", "coordinates": [7.68474531, 45.07197189]}, "type": "Feature", "id": null, "properties": {"province": "To", "city": "Torino", "category": "Abbazie e chiese", "name": "Chiesa di San Lorenzo (Torino)", "address": "Via Palazzo di Citt\u00e0 4"}}, {"geometry": {"type": "Point", "coordinates": [7.67605639, 45.07620239]}, "type": "Feature", "id": null, "properties": {"province": "To", "city": "Torino", "category": "Abbazie e chiese", "name": "Chiesa del Santo Sudario (Torino)", "address": "Via San Domenico "}}, {"geometry": {"type": "Point", "coordinates": [7.68259287, 45.07263184]}, "type": "Feature", "id": null, "properties": {"province": "To", "city": "Torino", "category": "Abbazie e chiese", "name": "Chiesa del Corpus Domini (Torino)", "address": "Piazza Corpus Domini "}}, {"geometry": {"type": "Point", "coordinates": [7.67890644, 45.07537079]}, "type": "Feature", "id": null, "properties": {"province": "To", "city": "Torino", "category": "Abbazie e chiese", "name": "Chiesa della SS. Trinit\u00e0 (Torino)", "address": "Via Garibaldi angolo via XX settembre "}}, {"geometry": {"type": "Point", "coordinates": [7.67543125, 45.07566833]}, "type": "Feature", "id": null, "properties": {"province": "To", "city": "Torino", "category": "Abbazie e chiese", "name": "Chiesa della Madonna del Carmine (Torino)", "address": "Via del Carmine 3"}}, {"geometry": {"type": "Point", "coordinates": [7.67941761, 45.07569122]}, "type": "Feature", "id": null, "properties": {"province": "To", "city": "Torino", "category": "Abbazie e chiese", "name": "Chiesa di Santa Chiara (Torino)", "address": "Via delle Orfane 15"}}, {"geometry": {"type": "Point", "coordinates": [7.688169, 45.06229019]}, "type": "Feature", "id": null, "properties": {"province": "To", "city": "Torino", "category": "Abbazie e chiese", "name": "Chiesa di San Massimo (Torino)", "address": "Via dei Mille 28"}}, {"geometry": {"type": "Point", "coordinates": [7.68114996, 45.06904984]}, "type": "Feature", "id": null, "properties": {"province": "To", "city": "Torino", "category": "Abbazie e chiese", "name": "Chiesa di Santa Teresa (Torino)", "address": "Via Santa Teresa 5"}}, {"geometry": {"type": "Point", "coordinates": [7.68852568, 45.06635284]}, "type": "Feature", "id": null, "properties": {"province": "To", "city": "Torino", "category": "Abbazie e chiese", "name": "Chiesa di Santa Croce (Torino)", "address": "Piazza Carlo Emanuele II "}}, {"geometry": {"type": "Point", "coordinates": [7.69246054, 45.06674194]}, "type": "Feature", "id": null, "properties": {"province": "To", "city": "Torino", "category": "Abbazie e chiese", "name": "Chiesa della SS. Annunziata (Torino)", "address": "Via Po 45"}}, {"geometry": {"type": "Point", "coordinates": [7.72411394, 45.06992722]}, "type": "Feature", "id": null, "properties": {"province": "To", "city": "Torino", "category": "Abbazie e chiese", "name": "Chiesa della Madonna del Pilone (Torino)", "address": "Corso Casale 195"}}, {"geometry": {"type": "Point", "coordinates": [7.69756222, 45.05987549]}, "type": "Feature", "id": null, "properties": {"province": "To", "city": "Torino", "category": "Abbazie e chiese", "name": "Chiesa di Santa Maria del Monte dei Cappuccini (Torino)", "address": "Via Giardino 35"}}, {"geometry": {"type": "Point", "coordinates": [7.67936611, 45.07559204]}, "type": "Feature", "id": null, "properties": {"province": "To", "city": "Torino", "category": "Abbazie e chiese", "name": "Chiesa di San Dalmazzo (Torino)", "address": "Via Garibaldi angolo via delle Orfane "}}, {"geometry": {"type": "Point", "coordinates": [7.67646694, 45.07679367]}, "type": "Feature", "id": null, "properties": {"province": "To", "city": "Torino", "category": "Abbazie e chiese", "name": "Chiesa di Sant\u0092Agostino (Torino)", "address": "Via Sant'Agostino angolo Via Santa Chiara "}}, {"geometry": {"type": "Point", "coordinates": [7.6825614, 45.0751152]}, "type": "Feature", "id": null, "properties": {"province": "To", "city": "Torino", "category": "Abbazie e chiese", "name": "Basilica Magistrale dei Santi Maurizio e Lazzaro (Torino)", "address": "Via Milano 20"}}, {"geometry": {"type": "Point", "coordinates": [7.67977571, 45.06609726]}, "type": "Feature", "id": null, "properties": {"province": "To", "city": "Torino", "category": "Abbazie e chiese", "name": "Chiesa della Visitazione (Torino)", "address": "via Xx Settembre 23"}}, {"geometry": {"type": "Point", "coordinates": [7.67648983, 45.08045959]}, "type": "Feature", "id": null, "properties": {"province": "To", "city": "Torino", "category": "Abbazie e chiese", "name": "Basilica di Maria Ausiliatrice (Torino)", "address": "Via Maria Ausiliatrice 32"}}, {"geometry": {"type": "Point", "coordinates": [7.65348291, 45.0954361]}, "type": "Feature", "id": null, "properties": {"province": "To", "city": "Torino", "category": "Abbazie e chiese", "name": "Chiesa del SantoVolto (Torino)", "address": "Via Val della Torre 3"}}, {"geometry": {"type": "Point", "coordinates": [7.04517651, 45.13679886]}, "type": "Feature", "id": null, "properties": {"province": "To", "city": "Susa", "category": "Abbazie e chiese", "name": "Cattedrale di San Giusto (Susa)", "address": "Piazza San Giusto "}}, {"geometry": {"type": "Point", "coordinates": [7.39787197, 45.08409119]}, "type": "Feature", "id": null, "properties": {"province": "To", "city": "Avigliana", "category": "Abbazie e chiese", "name": "Chiesa di Santa Maria Maggiore (Avigliana)", "address": "Via L. Einaudi 20"}}, {"geometry": {"type": "Point", "coordinates": [7.40249443, 45.08779526]}, "type": "Feature", "id": null, "properties": {"province": "To", "city": "Avigliana", "category": "Abbazie e chiese", "name": "Chiesa di San Giovanni (Avigliana)", "address": "Via Beato Cherubino Testa 2"}}, {"geometry": {"type": "Point", "coordinates": [7.75482941, 44.86753845]}, "type": "Feature", "id": null, "properties": {"province": "To", "city": "Carmagnola", "category": "Abbazie e chiese", "name": "Abbazia di Santa Maria di Casanova (Carmagnola)", "address": "Piazza Antica Abbazia "}}, {"geometry": {"type": "Point", "coordinates": [7.32972622, 44.88493347]}, "type": "Feature", "id": null, "properties": {"province": "To", "city": "Pinerolo", "category": "Abbazie e chiese", "name": "Cattedrale di San Donato (Pinerolo)", "address": "Via Parrocchiale 11"}}, {"geometry": {"type": "Point", "coordinates": [7.32673407, 44.88918304]}, "type": "Feature", "id": null, "properties": {"province": "To", "city": "Pinerolo", "category": "Abbazie e chiese", "name": "Chiesa di San Maurizio (Pinerolo)", "address": "Piazzale San Maurizio 2"}}, {"geometry": {"type": "Point", "coordinates": [7.32641649, 44.8893013]}, "type": "Feature", "id": null, "properties": {"province": "To", "city": "Pinerolo", "category": "Abbazie e chiese", "name": "Santuario Madonna delle Grazie (Pinerolo)", "address": "Piazzale San Maurizio "}}, {"geometry": {"type": "Point", "coordinates": [7.8756221, 45.4681503]}, "type": "Feature", "id": null, "properties": {"province": "To", "city": "Ivrea", "category": "Abbazie e chiese", "name": "Cattedrale di Santa Maria Assunta (Ivrea)", "address": "Piazza del Duomo "}}, {"geometry": {"type": "Point", "coordinates": [7.23276377, 45.11031342]}, "type": "Feature", "id": null, "properties": {"province": "To", "city": "Villar Focchiardo", "category": "Abbazie e chiese", "name": "Certosa di Monte Benedetto (Villar Focchiardo)", "address": "Carrozzabile per l\u0092alpeggio Casotto-Fumavecchia "}}, {"geometry": {"type": "Point", "coordinates": [7.86822701, 45.45664215]}, "type": "Feature", "id": null, "properties": {"province": "To", "city": "Ivrea", "category": "Abbazie e chiese", "name": "Chiesa di San Bernardino (Ivrea)", "address": "Via G.Jervis 380"}}, {"geometry": {"type": "Point", "coordinates": [7.8893857, 45.18981934]}, "type": "Feature", "id": null, "properties": {"province": "To", "city": "Chivasso", "category": "Abbazie e chiese", "name": "Duomo di Santa Maria Assunta (Chivasso)", "address": "Piazza della Repubblica 4"}}, {"geometry": {"type": "Point", "coordinates": [7.82255983, 45.01195526]}, "type": "Feature", "id": null, "properties": {"province": "To", "city": "Chieri", "category": "Abbazie e chiese", "name": "Duomo di Santa Maria della Scala (Chieri)", "address": "Piazzetta S.Lucia 1"}}, {"geometry": {"type": "Point", "coordinates": [7.68488169, 45.0009346]}, "type": "Feature", "id": null, "properties": {"province": "To", "city": "Moncalieri", "category": "Abbazie e chiese", "name": "Collegiata di Santa Maria della Scala (Moncalieri)", "address": "Piazza Vittorio Emanuele II "}}, {"geometry": {"type": "Point", "coordinates": [7.67584372, 44.90708923]}, "type": "Feature", "id": null, "properties": {"province": "To", "city": "Carignano", "category": "Abbazie e chiese", "name": "Chiesa di San Giovanni Battista (Carignano)", "address": "Via Frichieri 10"}}, {"geometry": {"type": "Point", "coordinates": [8.09754372, 45.06603241]}, "type": "Feature", "id": null, "properties": {"province": "At", "city": "Montiglio", "category": "Abbazie e chiese", "name": "Chiesa di  San Lorenzo (Montiglio)", "address": "Via Roma 1"}}, {"geometry": {"type": "Point", "coordinates": [8.11012173, 45.00831985]}, "type": "Feature", "id": null, "properties": {"province": "At", "city": "Montechiaro d'Asti", "category": "Abbazie e chiese", "name": "Chiesa di San Nazario (Montechiaro d\u0092Asti)", "address": "Piazza Giovanni XXIII 1"}}, {"geometry": {"type": "Point", "coordinates": [7.98287725, 45.01723862]}, "type": "Feature", "id": null, "properties": {"province": "At", "city": "Castelnuovo Don Bosco", "category": "Abbazie e chiese", "name": "Santuario di Don Bosco (Castelnuovo Don Bosco)", "address": "Borgata Becchi - Frazione Morialdo "}}, {"geometry": {"type": "Point", "coordinates": [8.05340672, 45.56634903]}, "type": "Feature", "id": null, "properties": {"province": "Bi", "city": "Biella", "category": "Abbazie e chiese", "name": "Cattedrale di Santo Stefano Protomartire (Biella)", "address": "Piazza Duomo "}}, {"geometry": {"type": "Point", "coordinates": [8.00788403, 45.59819412]}, "type": "Feature", "id": null, "properties": {"province": "Bi", "city": "Biella", "category": "Abbazie e chiese", "name": "Santuario della Madonna d'Oropa (Oropa-Biella)", "address": "Via Santuario di Oropa 480"}}, {"geometry": {"type": "Point", "coordinates": [7.4462328, 44.52051926]}, "type": "Feature", "id": null, "properties": {"province": "Cn", "city": "Busca", "category": "Architetture notevoli", "name": "Eremo di Belmonte (Busca)", "address": "Eremo di Busca "}}, {"geometry": {"type": "Point", "coordinates": [8.53898716, 45.79203415]}, "type": "Feature", "id": null, "properties": {"province": "No", "city": "Meina", "category": "Giardini e dimore storiche", "name": "Villa Faraggiana (Meina)", "address": "Strada Statale Sempione 23"}}, {"geometry": {"type": "Point", "coordinates": [8.56049824, 45.82431793]}, "type": "Feature", "id": null, "properties": {"province": "No", "city": "Lesa", "category": "Giardini e dimore storiche", "name": "Villa Correnti (Lesa)", "address": "Strada Statale Sempione 157"}}, {"geometry": {"type": "Point", "coordinates": [8.57329655, 45.84199905]}, "type": "Feature", "id": null, "properties": {"province": "Vb", "city": "Belgirate", "category": "Giardini e dimore storiche", "name": "Villa Carlotta (Belgirate)", "address": "Via Mazzini 121/125"}}, {"geometry": {"type": "Point", "coordinates": [8.55736637, 45.91777039]}, "type": "Feature", "id": null, "properties": {"province": "Vb", "city": "Verbania", "category": "Giardini e dimore storiche", "name": "Palazzo Borromeo e Isolino di San Giovanni (Verbania)", "address": "Isolino di San Giovanni "}}, {"geometry": {"type": "Point", "coordinates": [7.89482212, 44.68284225]}, "type": "Feature", "id": null, "properties": {"province": "Cn", "city": "Bra", "category": "Architetture notevoli", "name": "Tenuta Reale di Pollenzo (Bra)", "address": "Piazza Vittorio Emanuele II 13"}}, {"geometry": {"type": "Point", "coordinates": [7.66196203, 45.06702423]}, "type": "Feature", "id": null, "properties": {"province": "To", "city": "Torino", "category": "Architetture notevoli", "name": "OGR - Officine Grandi Riparazioni", "address": "corso Castelfidardo 22"}}, {"geometry": {"type": "Point", "coordinates": [8.32995605, 44.97776031]}, "type": "Feature", "id": null, "properties": {"province": "At", "city": "Montemagno", "category": "Abbazie e chiese", "name": "Chiesa di San Vittore", "address": "Strada Comunale San Carlo "}}, {"geometry": {"type": "Point", "coordinates": [8.43965816, 45.78870392]}, "type": "Feature", "id": null, "properties": {"province": "No", "city": "Ameno", "category": "Giardini e dimore storiche", "name": "Parco Comunale di Palazzo Tornielli (Ameno)", "address": "Piazza Marconi 1"}}, {"geometry": {"type": "Point", "coordinates": [8.43015766, 45.80245209]}, "type": "Feature", "id": null, "properties": {"province": "No", "city": "Miasino", "category": "Giardini e dimore storiche", "name": "Villa Nigra", "address": "Piazza Feltrami "}}, {"geometry": {"type": "Point", "coordinates": [7.7736486, 44.9492267]}, "type": "Feature", "id": null, "properties": {"province": "To", "city": "Santena", "category": "Castelli", "name": "Castello Cavour (Santena)", "address": "Piazza Visconti Venosta 2"}}, {"geometry": {"type": "Point", "coordinates": [0.0, 0.0]}, "type": "Feature", "id": null, "properties": {"province": "To", "city": "Exilles", "category": "Architetture notevoli", "name": "Ascensore Forte di Exilles (Exilles)", "address": " "}}, {"geometry": {"type": "Point", "coordinates": [8.42555714, 45.32570648]}, "type": "Feature", "id": null, "properties": {"province": "Vc", "city": "Vercelli", "category": "Abbazie e chiese", "name": "Sinagoga di Vercelli", "address": "Via Foa 56/58"}}, {"geometry": {"type": "Point", "coordinates": [7.62580252, 45.13516998]}, "type": "Feature", "id": null, "properties": {"province": "To", "city": "Venaria Reale", "category": "Giardini e dimore storiche", "name": "Giardini della Reggia di Venaria (Venaria Reale)", "address": "Piazza Repubblica 4"}}]}
