{"type": "FeatureCollection", "features": [{"geometry": {"type": "Point", "coordinates": [7.84122896, 44.96548843]}, "type": "Feature", "id": null, "properties": {"province": "To", "city": "Chieri", "category": "tematici", "name": "Museo \"Martini\" di Storia dell'Enologia (Chieri)", "address": "Piazza Luigi Rossi - Pessione di Chieri 2"}}, {"geometry": {"type": "Point", "coordinates": [7.81922817, 44.94099808]}, "type": "Feature", "id": null, "properties": {"province": "To", "city": "Chieri", "category": "tematici", "name": "Fondazione Chierese per il Tessile e Museo del Tessile (Chieri)", "address": "via Santa Clara 1"}}, {"geometry": {"type": "Point", "coordinates": [6.93031502, 45.09860992]}, "type": "Feature", "id": null, "properties": {"province": "To", "city": "Exilles", "category": "storia e archeologia", "name": "Collezioni del Forte di Exilles - Museo delle Truppe Alpine (Exilles)", "address": "Forte di Exilles "}}, {"geometry": {"type": "Point", "coordinates": [0.0, 0.0]}, "type": "Feature", "id": null, "properties": {"province": "To", "city": "Fenestrelle", "category": "storia e archeologia", "name": "Museo del Regio Esercito Italiano (Fenestrelle)", "address": " "}}, {"geometry": {"type": "Point", "coordinates": [8.01161957, 45.34656906]}, "type": "Feature", "id": null, "properties": {"province": "To", "city": "Maglione", "category": "arte moderna e contemporanea", "name": "M.A.C.A.M. - Museo d'Arte Contemporanea all'Aperto (Maglione)", "address": "Via Castello 2"}}, {"geometry": {"type": "Point", "coordinates": [7.68640566, 45.00170517]}, "type": "Feature", "id": null, "properties": {"province": "To", "city": "Moncalieri", "category": "arte antica", "name": "Castello Reale (Moncalieri)", "address": "Piazza Baden Baden 4"}}, {"geometry": {"type": "Point", "coordinates": [7.33361292, 44.88697052]}, "type": "Feature", "id": null, "properties": {"province": "To", "city": "Pinerolo", "category": "tradizione", "name": "Collezione Civica d'Arte, Museo Scienze Naturali, Museo Etnografico (Pinerolo)", "address": "Piazza Vittorio Veneto 8"}}, {"geometry": {"type": "Point", "coordinates": [7.6931386, 45.06622696]}, "type": "Feature", "id": null, "properties": {"province": "To", "city": "Torino", "category": "arte antica", "name": "Museo di Arti Decorative Fondazione Accorsi-Ometto (Torino)", "address": "Via Po 55"}}, {"geometry": {"type": "Point", "coordinates": [7.68697309, 45.07061005]}, "type": "Feature", "id": null, "properties": {"province": "To", "city": "Torino", "category": "storia e archeologia", "name": "Armeria Reale (Torino)", "address": "Piazza Castello 191"}}, {"geometry": {"type": "Point", "coordinates": [7.67434597, 45.03126907]}, "type": "Feature", "id": null, "properties": {"province": "To", "city": "Torino", "category": "tematici", "name": "Museo Nazionale dell'Automobile \"Carlo Biscaretti di Ruffia\" (Torino)", "address": "Corso Unit\u00e0 d'Italia 40"}}, {"geometry": {"type": "Point", "coordinates": [7.68596888, 45.05118942]}, "type": "Feature", "id": null, "properties": {"province": "To", "city": "Torino", "category": "storia e archeologia", "name": "Borgo Medievale (Torino)", "address": "Viale Virgilio 107"}}, {"geometry": {"type": "Point", "coordinates": [7.68476391, 45.06876373]}, "type": "Feature", "id": null, "properties": {"province": "To", "city": "Torino", "category": "arte antica", "name": "Museo delle Antichit\u00e0 Egizie (Torino)", "address": "Via Accademia delle Scienze 6"}}, {"geometry": {"type": "Point", "coordinates": [7.68476391, 45.06876373]}, "type": "Feature", "id": null, "properties": {"province": "To", "city": "Torino", "category": "arte antica", "name": "Galleria Sabauda (Torino)", "address": "Via XX Settembre 86"}}, {"geometry": {"type": "Point", "coordinates": [7.66899252, 45.06529617]}, "type": "Feature", "id": null, "properties": {"province": "To", "city": "Torino", "category": "arte moderna e contemporanea", "name": "GAM - Galleria Civica d'Arte Moderna e Contemporanea (Torino)", "address": "Via Magenta 31"}}, {"geometry": {"type": "Point", "coordinates": [7.66832066, 45.0720787]}, "type": "Feature", "id": null, "properties": {"province": "To", "city": "Torino", "category": "storia e archeologia", "name": "Museo Civico Pietro Micca (Torino)", "address": "Via Guicciardini 7/a"}}, {"geometry": {"type": "Point", "coordinates": [7.69299412, 45.06927109]}, "type": "Feature", "id": null, "properties": {"province": "To", "city": "Torino", "category": "tematici", "name": "Museo Nazionale del Cinema (Torino)", "address": "Via Montebello 20"}}, {"geometry": {"type": "Point", "coordinates": [7.6845212, 45.07310486]}, "type": "Feature", "id": null, "properties": {"province": "To", "city": "Torino", "category": "storia e archeologia", "name": "Museo di Antichit\u00e0 (Torino)", "address": "Via xx Settembre 88/c"}}, {"geometry": {"type": "Point", "coordinates": [7.69743204, 45.05981064]}, "type": "Feature", "id": null, "properties": {"province": "To", "city": "Torino", "category": "tematici", "name": "Museo Nazionale della Montagna \"Duca degli Abruzzi\" (Torino)", "address": "Via G. Giardino 39"}}, {"geometry": {"type": "Point", "coordinates": [7.68585587, 45.06813431]}, "type": "Feature", "id": null, "properties": {"province": "To", "city": "Torino", "category": "storia e archeologia", "name": "Museo del Risorgimento (Torino)", "address": "Piazza Carlo Alberto 8"}}, {"geometry": {"type": "Point", "coordinates": [7.68682861, 45.05652618]}, "type": "Feature", "id": null, "properties": {"province": "To", "city": "Torino", "category": "scienza e tecnica", "name": "Orto Botanico (Torino)", "address": "Viale Mattioli 25"}}, {"geometry": {"type": "Point", "coordinates": [7.6865716, 45.07258224]}, "type": "Feature", "id": null, "properties": {"province": "To", "city": "Torino", "category": "arte antica", "name": "Palazzo Reale (Museo - Torino)", "address": "Piazzetta Reale "}}, {"geometry": {"type": "Point", "coordinates": [7.6895752, 45.06728363]}, "type": "Feature", "id": null, "properties": {"province": "To", "city": "Torino", "category": "arte moderna e contemporanea", "name": "Pinacoteca dell'Accademia Albertina di Belle Arti (Torino)", "address": "Via Accademia Albertina 8"}}, {"geometry": {"type": "Point", "coordinates": [7.66795111, 45.03421021]}, "type": "Feature", "id": null, "properties": {"province": "To", "city": "Torino", "category": "arte moderna e contemporanea", "name": "Pinacoteca Agnelli (Torino)", "address": "Via Nizza 230"}}, {"geometry": {"type": "Point", "coordinates": [7.69206429, 45.06846619]}, "type": "Feature", "id": null, "properties": {"province": "To", "city": "Torino", "category": "tematici", "name": "Museo della Radio e della Televisione (Torino)", "address": "Via Giuseppe Verdi 16"}}, {"geometry": {"type": "Point", "coordinates": [7.51024675, 45.07019424]}, "type": "Feature", "id": null, "properties": {"province": "To", "city": "Rivoli", "category": "arte moderna e contemporanea", "name": "Castello di Rivoli Museo d\u0092Arte Contemporanea (Rivoli)", "address": "Piazza Mafalda di Savoia "}}, {"geometry": {"type": "Point", "coordinates": [7.67650414, 45.07606506]}, "type": "Feature", "id": null, "properties": {"province": "To", "city": "Torino", "category": "arte sacra", "name": "Museo della Sindone (Torino)", "address": "Via San Domenico 28"}}, {"geometry": {"type": "Point", "coordinates": [7.94923496, 45.43475342]}, "type": "Feature", "id": null, "properties": {"province": "To", "city": "Caravino", "category": "arte antica", "name": "Museo del Castello di Masino (Caravino)", "address": "Via Del Castello 1"}}, {"geometry": {"type": "Point", "coordinates": [8.47257233, 44.67443466]}, "type": "Feature", "id": null, "properties": {"province": "Al", "city": "Acqui Terme", "category": "storia e archeologia", "name": "Civico Museo Archeologico (Acqui Terme)", "address": "Via Morelli 2"}}, {"geometry": {"type": "Point", "coordinates": [8.61564636, 44.908741]}, "type": "Feature", "id": null, "properties": {"province": "Al", "city": "Alessandria", "category": "tematici", "name": "Museo del Cappello Borsalino (Alessandria)", "address": "Via Cavour 84"}}, {"geometry": {"type": "Point", "coordinates": [8.7001543, 44.86860657]}, "type": "Feature", "id": null, "properties": {"province": "Al", "city": "Alessandria", "category": "storia e archeologia", "name": "Marengo Museum (Spinetta Marengo)", "address": "Via Genova - Spinetta Marengo 8/a"}}, {"geometry": {"type": "Point", "coordinates": [8.61874866, 44.91531372]}, "type": "Feature", "id": null, "properties": {"province": "Al", "city": "Alessandria", "category": "scienza e tecnica", "name": "Teatro delle Scienze (Alessandria)", "address": "Via 1821 11"}}, {"geometry": {"type": "Point", "coordinates": [8.36987114, 44.66083527]}, "type": "Feature", "id": null, "properties": {"province": "Al", "city": "Bistagno", "category": "arte moderna e contemporanea", "name": "Gipsoteca Giulio Monteverde (Bistagno)", "address": "Via C. Testa 3"}}, {"geometry": {"type": "Point", "coordinates": [8.93074131, 44.79790115]}, "type": "Feature", "id": null, "properties": {"province": "Al", "city": "Castellania", "category": "tematici", "name": "Casa di Fausto Coppi (Castellania)", "address": "Via Coppi 2"}}, {"geometry": {"type": "Point", "coordinates": [8.79832458, 44.75424957]}, "type": "Feature", "id": null, "properties": {"province": "Al", "city": "Novi Ligure", "category": "tematici", "name": "Museo dei Campionissimi (Novi Ligure)", "address": "Viale dei Campionissimi "}}, {"geometry": {"type": "Point", "coordinates": [7.98495531, 45.01184464]}, "type": "Feature", "id": null, "properties": {"province": "At", "city": "Castelnuovo Don Bosco", "category": "arte sacra", "name": "Museo Etnologico Missionario Salesiano (Castelnuovo Don Bosco)", "address": "Frazione Morialdo 30"}}, {"geometry": {"type": "Point", "coordinates": [8.00383759, 44.82509613]}, "type": "Feature", "id": null, "properties": {"province": "At", "city": "Cisterna D'Asti", "category": "tradizione", "name": "Museo Arti e Mestieri di un Tempo (Cisterna D'Asti)", "address": "Piazza Maggiore Hope 1"}}, {"geometry": {"type": "Point", "coordinates": [8.19845867, 44.8990593]}, "type": "Feature", "id": null, "properties": {"province": "At", "city": "Asti", "category": "storia e archeologia", "name": "Museo Alfieriano (Asti)", "address": "Corso Alfieri 375"}}, {"geometry": {"type": "Point", "coordinates": [8.36097145, 44.77323914]}, "type": "Feature", "id": null, "properties": {"province": "At", "city": "Nizza Monferrato", "category": "tematici", "name": "Museo Bersano delle Contadinerie e delle Stampe sul Vino (Nizza Monferrato)", "address": "Piazza Dante 21"}}, {"geometry": {"type": "Point", "coordinates": [8.20027065, 44.8993721]}, "type": "Feature", "id": null, "properties": {"province": "At", "city": "Asti", "category": "arte sacra", "name": "Cripta e Museo di Sant'Anastasio (Asti)", "address": "Corso Alfieri 365/a"}}, {"geometry": {"type": "Point", "coordinates": [7.34942341, 44.93400574]}, "type": "Feature", "id": null, "properties": {"province": "To", "city": "Frossasco", "category": "tematici", "name": "Museo del Gusto (Frossasco)", "address": "Via Principe Amedeo 42/a"}}, {"geometry": {"type": "Point", "coordinates": [8.38932896, 44.99481583]}, "type": "Feature", "id": null, "properties": {"province": "Al", "city": "Altavilla Monferrato", "category": "tematici", "name": "Museo della Grappa e della Distilleria Mazzetti (Altavilla Monferrato)", "address": "Localit\u00e0 Cittadella 1"}}, {"geometry": {"type": "Point", "coordinates": [8.51061058, 45.86235428]}, "type": "Feature", "id": null, "properties": {"province": "Vb", "city": "Gignese", "category": "tematici", "name": "Museo dell'Ombrello e del Parasole (Gignese)", "address": "Viale Golf Panorama 2 bis"}}, {"geometry": {"type": "Point", "coordinates": [7.40249443, 45.08779526]}, "type": "Feature", "id": null, "properties": {"province": "To", "city": "Avigliana", "category": "tematici", "name": "Ecomuseo Dinamitificio Nobel (Avigliana)", "address": "Viale Nobel - Zona Industriale "}}, {"geometry": {"type": "Point", "coordinates": [8.21365643, 44.91024017]}, "type": "Feature", "id": null, "properties": {"province": "At", "city": "Asti", "category": "tematici", "name": "Museo degli Arazzi Scassa (Asti)", "address": "Via dell\u1e40Arazzeria 60"}}, {"geometry": {"type": "Point", "coordinates": [7.66384029, 44.64043045]}, "type": "Feature", "id": null, "properties": {"province": "Cn", "city": "Savigliano", "category": "tematici", "name": "Museo Ferroviario Piemontese (Savigliano)", "address": "Via Coloira 7"}}, {"geometry": {"type": "Point", "coordinates": [8.44091702, 45.81916428]}, "type": "Feature", "id": null, "properties": {"province": "No", "city": "Armeno", "category": "tematici", "name": "Museo degli Alberghieri (Armeno)", "address": "Via dei Prati 3"}}, {"geometry": {"type": "Point", "coordinates": [8.38956165, 45.77619553]}, "type": "Feature", "id": null, "properties": {"province": "No", "city": "San Maurizio d'Opaglio", "category": "tematici", "name": "Museo del Rubinetto e della sua Tecnologia (San Maurizio d\u1e40Opaglio)", "address": "Piazza Martiri 1"}}, {"geometry": {"type": "Point", "coordinates": [7.93685627, 45.86064148]}, "type": "Feature", "id": null, "properties": {"province": "Vc", "city": "Alagna Valsesia", "category": "tradizione", "name": "Walser Museum (Alagna Valsesia)", "address": "Frazione Pedemonte "}}, {"geometry": {"type": "Point", "coordinates": [0.0, 0.0]}, "type": "Feature", "id": null, "properties": {"province": "Bi", "city": "Pray", "category": "ecomusei", "name": "Fabbrica della Ruota (Pray)", "address": " "}}, {"geometry": {"type": "Point", "coordinates": [0.0, 0.0]}, "type": "Feature", "id": null, "properties": {"province": "Bi", "city": "Mezzana Mortigliengo", "category": "ecomusei", "name": "Museo Laboratorio del Mortigliengo (Mezzana Mortigliengo)", "address": " "}}, {"geometry": {"type": "Point", "coordinates": [0.0, 0.0]}, "type": "Feature", "id": null, "properties": {"province": "Bi", "city": "Ronco Biellese", "category": "ecomusei", "name": "Ecomuseo della Terracotta (Ronco Biellese)", "address": " "}}, {"geometry": {"type": "Point", "coordinates": [8.03485775, 44.69920731]}, "type": "Feature", "id": null, "properties": {"province": "Cn", "city": "Alba", "category": "storia e archeologia", "name": "Museo Civico Archeologico e di Scienze Naturali \"Federico Eusebio\" (Alba)", "address": "Via Vittorio Emanuele 19"}}, {"geometry": {"type": "Point", "coordinates": [7.85206747, 44.70099258]}, "type": "Feature", "id": null, "properties": {"province": "Cn", "city": "Bra", "category": "scienza e tecnica", "name": "Museo Civico di Storia Naturale \"Federico ed Ettore Craveri\" (Bra)", "address": "Via Craveri 15"}}, {"geometry": {"type": "Point", "coordinates": [7.94430685, 44.61126328]}, "type": "Feature", "id": null, "properties": {"province": "Cn", "city": "Barolo", "category": "tradizione", "name": "Museo Etnografico-Enologico del Castello Falletti di Barolo (Barolo)", "address": "Piazza Falletti "}}, {"geometry": {"type": "Point", "coordinates": [7.67738581, 44.32464981]}, "type": "Feature", "id": null, "properties": {"province": "Cn", "city": "Chiusa Pesio", "category": "tematici", "name": "Museo della Regia Cristalleria e delle Ceramiche (Chiusa di Pesio)", "address": "Via Mazzini 5"}}, {"geometry": {"type": "Point", "coordinates": [7.54758644, 44.38991928]}, "type": "Feature", "id": null, "properties": {"province": "Cn", "city": "Cuneo", "category": "storia e archeologia", "name": "Casa Museo Galimberti (Cuneo)", "address": "Piazza Galimberti 6"}}, {"geometry": {"type": "Point", "coordinates": [7.53657007, 44.38692093]}, "type": "Feature", "id": null, "properties": {"province": "Cn", "city": "Cuneo", "category": "tematici", "name": "Museo Ferroviario (Cuneo)", "address": "Piazzale Libert\u00e0 10"}}, {"geometry": {"type": "Point", "coordinates": [7.86822701, 45.45664215]}, "type": "Feature", "id": null, "properties": {"province": "To", "city": "Ivrea", "category": "arte moderna e contemporanea", "name": "Museo a cielo aperto dell'architettura moderna di Ivrea (Ivrea)", "address": "Via Jervis 26"}}, {"geometry": {"type": "Point", "coordinates": [8.55128574, 45.92307281]}, "type": "Feature", "id": null, "properties": {"province": "Vb", "city": "Verbania", "category": "arte moderna e contemporanea", "name": "Museo del Paesaggio (Verbania)", "address": "Localit\u00e0 Pallanza - Via Ruga 44"}}, {"geometry": {"type": "Point", "coordinates": [8.46641159, 46.13514328]}, "type": "Feature", "id": null, "properties": {"province": "Vb", "city": "Santa Maria Maggiore", "category": "tematici", "name": "Museo dello Spazzacamino (Santa Maria Maggiore)", "address": "Piazza Risorgimento 5"}}, {"geometry": {"type": "Point", "coordinates": [8.52728081, 45.8952179]}, "type": "Feature", "id": null, "properties": {"province": "Vb", "city": "Stresa", "category": "tematici", "name": "Palazzo Borromeo- Isola Bella (Stresa)", "address": "Lungolago Vittorio Emanuele - Isola Bella "}}, {"geometry": {"type": "Point", "coordinates": [8.53810215, 45.91115189]}, "type": "Feature", "id": null, "properties": {"province": "Vb", "city": "Stresa", "category": "tematici", "name": "Palazzo Borromeo- Isola Madre (Stresa)", "address": "Isola Madre "}}, {"geometry": {"type": "Point", "coordinates": [8.42677307, 45.32550812]}, "type": "Feature", "id": null, "properties": {"province": "Vc", "city": "Vercelli", "category": "arte moderna e contemporanea", "name": "Museo Borgogna (Vercelli)", "address": "Via Antonio Borgogna 4/6"}}, {"geometry": {"type": "Point", "coordinates": [8.42251301, 45.32657242]}, "type": "Feature", "id": null, "properties": {"province": "Vc", "city": "Vercelli", "category": "storia e archeologia", "name": "Museo Camillo Leone (Vercelli)", "address": "Via Verdi 30"}}, {"geometry": {"type": "Point", "coordinates": [8.25269413, 45.81623077]}, "type": "Feature", "id": null, "properties": {"province": "Vc", "city": "Varallo", "category": "arte moderna e contemporanea", "name": "Palazzo dei Musei (Varallo)", "address": "Via Pio Franzani 2"}}, {"geometry": {"type": "Point", "coordinates": [8.42295933, 45.32963181]}, "type": "Feature", "id": null, "properties": {"province": "Vc", "city": "Vercelli", "category": "arte sacra", "name": "Museo del Tesoro del Duomo e Archivio Capitolare (Vercelli)", "address": "Piazza D'Angennes 5"}}, {"geometry": {"type": "Point", "coordinates": [8.0524807, 45.55972672]}, "type": "Feature", "id": null, "properties": {"province": "Bi", "city": "Biella", "category": "storia e archeologia", "name": "Museo delle Truppe Alpine \"Mario Balocco\" (Biella)", "address": "Via Delleani 33/d"}}, {"geometry": {"type": "Point", "coordinates": [8.18106174, 45.54451752]}, "type": "Feature", "id": null, "properties": {"province": "Bi", "city": "Cossato", "category": "tematici", "name": "Ecomuseo del Cossatese e delle Baragge (Cossato)", "address": "Piazza Angiono - Frazione Castellengo 14"}}, {"geometry": {"type": "Point", "coordinates": [8.19048214, 45.62700653]}, "type": "Feature", "id": null, "properties": {"province": "Bi", "city": "Mezzana Mortigliengo", "category": "arte moderna e contemporanea", "name": "Galleria d'Arte Moderna all'Aperto Bondarte (Mezzana Mortigliengo)", "address": "Frazione Bonda "}}, {"geometry": {"type": "Point", "coordinates": [8.56593323, 45.83898544]}, "type": "Feature", "id": null, "properties": {"province": "Vb", "city": "Belgirate", "category": "storia e archeologia", "name": "Museo Baita della Libert\u00e0 (Belgirate)", "address": "Via P. Musolishvili "}}, {"geometry": {"type": "Point", "coordinates": [8.68260288, 46.02129364]}, "type": "Feature", "id": null, "properties": {"province": "Vb", "city": "Cannero Riviera", "category": "tradizione", "name": "Museo etnografico e della Spazzola (Cannero Riviera)", "address": "Via Dante "}}, {"geometry": {"type": "Point", "coordinates": [8.30735302, 46.23174667]}, "type": "Feature", "id": null, "properties": {"province": "Vb", "city": "Crodo", "category": "tradizione", "name": "Casa Museo della Montagna (Crodo)", "address": "Frazione Viceno 28862"}}, {"geometry": {"type": "Point", "coordinates": [8.32327747, 46.22208023]}, "type": "Feature", "id": null, "properties": {"province": "Vb", "city": "Crodo", "category": "scienza e tecnica", "name": "Museo di Scienze della Terra \"Ubaldo Baroli\" (Crodo)", "address": "Via Pellanda 15"}}, {"geometry": {"type": "Point", "coordinates": [8.29090309, 46.1160202]}, "type": "Feature", "id": null, "properties": {"province": "Vb", "city": "Domodossola", "category": "storia e archeologia", "name": "Civici Musei \"Gian Giacomo Galletti\" in Palazzo Silva (Domodossola)", "address": "Via Paletta 4"}}, {"geometry": {"type": "Point", "coordinates": [8.29048634, 46.11407089]}, "type": "Feature", "id": null, "properties": {"province": "Vb", "city": "Domodossola", "category": "scienza e tecnica", "name": "Museo del Collegio Rosminiano (Domodossola)", "address": "Via Rosmini 24"}}, {"geometry": {"type": "Point", "coordinates": [8.62267113, 45.96380997]}, "type": "Feature", "id": null, "properties": {"province": "Vb", "city": "Ghiffa", "category": "tematici", "name": "Museo dell'Arte del Cappello (Ghiffa)", "address": "Corso Belvedere 279"}}, {"geometry": {"type": "Point", "coordinates": [8.43075943, 45.93103027]}, "type": "Feature", "id": null, "properties": {"province": "Vb", "city": "Gravellona Toce", "category": "storia e archeologia", "name": "Museo dell'Associazione archeologica culturale \"Felice Pattaroni\" (Gravellona Toce)", "address": "Corso Sempione 120"}}, {"geometry": {"type": "Point", "coordinates": [8.56979561, 46.08508682]}, "type": "Feature", "id": null, "properties": {"province": "Vb", "city": "Gurro", "category": "tradizione", "name": "Museo Etnografico di Gurro e della Valle Cannobina (Gurro)", "address": "Piazza della Repubblica "}}, {"geometry": {"type": "Point", "coordinates": [7.9682951, 45.96828079]}, "type": "Feature", "id": null, "properties": {"province": "Vb", "city": "Macugnaga", "category": "scienza e tecnica", "name": "Miniera d\u0092oro della Guia (Macugnaga)", "address": "Localit\u00e0 La Guja - Frazione Borca "}}, {"geometry": {"type": "Point", "coordinates": [7.99761152, 45.95900726]}, "type": "Feature", "id": null, "properties": {"province": "Vb", "city": "Macugnaga", "category": "tradizione", "name": "Casa Museo Walser - Alts Walserhubus Ban Zer Burfuggu (Macugnaga)", "address": "Via Monterosa, 232 - Localit\u00e0 Borca 232"}}, {"geometry": {"type": "Point", "coordinates": [8.03227329, 45.79838181]}, "type": "Feature", "id": null, "properties": {"province": "Vc", "city": "Campertogno", "category": "arte moderna e contemporanea", "name": "Museo della Parrocchiale di San Giacomo Maggiore (Campertogno)", "address": "Via Umberto I 16"}}, {"geometry": {"type": "Point", "coordinates": [8.29275131, 45.80682373]}, "type": "Feature", "id": null, "properties": {"province": "Vc", "city": "Civiasco", "category": "storia e archeologia", "name": "Museo Civico \"Ercole Durio da Roc\" (Civiasco)", "address": "Via Ercole Durio 6"}}, {"geometry": {"type": "Point", "coordinates": [8.1575222, 45.89028549]}, "type": "Feature", "id": null, "properties": {"province": "Vc", "city": "Fobello", "category": "tradizione", "name": "Mostra del Puncetto (Fobello)", "address": "Via Rizzetti "}}, {"geometry": {"type": "Point", "coordinates": [8.15994549, 45.89338303]}, "type": "Feature", "id": null, "properties": {"province": "Vc", "city": "Fobello", "category": "scienza e tecnica", "name": "Museo Carestia-Tirozzo (Fobello)", "address": "Frazione Campelli "}}, {"geometry": {"type": "Point", "coordinates": [8.24933147, 45.70200729]}, "type": "Feature", "id": null, "properties": {"province": "Vc", "city": "Guardabosone", "category": "scienza e tecnica", "name": "Museo di Scienze Naturali \u0093Cavalier Locca\u0094 (Guardabosone)", "address": "Via Roma "}}, {"geometry": {"type": "Point", "coordinates": [7.99891853, 45.88470459]}, "type": "Feature", "id": null, "properties": {"province": "Vc", "city": "Rima San Giuseppe", "category": "arte moderna e contemporanea", "name": "Gipsoteca \"Pietro Della Vedova\" (Rima San Giuseppe)", "address": " "}}, {"geometry": {"type": "Point", "coordinates": [8.18220329, 45.9081955]}, "type": "Feature", "id": null, "properties": {"province": "Vc", "city": "Rimella", "category": "tradizione", "name": "Museo Civico \"Giovanni Battista Filippa\" (Rimella)", "address": "Frazione Chiesa "}}, {"geometry": {"type": "Point", "coordinates": [7.95783329, 45.83205414]}, "type": "Feature", "id": null, "properties": {"province": "Vc", "city": "Riva Valdobbia", "category": "tradizione", "name": "Museo Etnografico Walser (Riva Valdobbia)", "address": "Frazione Rabernardo "}}, {"geometry": {"type": "Point", "coordinates": [8.26847363, 45.60129547]}, "type": "Feature", "id": null, "properties": {"province": "Vc", "city": "Roasio", "category": "tradizione", "name": "Museo dell'Emigrante (Roasio)", "address": "Via Vittorio Veneto 75/a"}}, {"geometry": {"type": "Point", "coordinates": [8.17567158, 45.36522293]}, "type": "Feature", "id": null, "properties": {"province": "Vc", "city": "Santhi\u00e0", "category": "arte moderna e contemporanea", "name": "Galleria Civica d'Arte Moderna e Contemporanea (Santhi\u00e0)", "address": "Via dell'Ospedale 11"}}, {"geometry": {"type": "Point", "coordinates": [8.25694084, 45.81350708]}, "type": "Feature", "id": null, "properties": {"province": "Vc", "city": "Varallo", "category": "ecomusei", "name": "Ecomuseo della Valsesia (Varallo)", "address": "C.so Roma 35"}}, {"geometry": {"type": "Point", "coordinates": [8.24794197, 45.81588745]}, "type": "Feature", "id": null, "properties": {"province": "Vc", "city": "Varallo", "category": "tradizione", "name": "Museo Luigi e Luigina Comola (Varallo)", "address": "Frazione Camasco - Via Giovanni Comola 1"}}, {"geometry": {"type": "Point", "coordinates": [8.42411327, 45.32313156]}, "type": "Feature", "id": null, "properties": {"province": "Vc", "city": "Vercelli", "category": "ecomusei", "name": "Ecomuseo delle Terre d'acqua (Vercelli)", "address": "Via San Cristoforo 3"}}, {"geometry": {"type": "Point", "coordinates": [8.44815922, 45.96074295]}, "type": "Feature", "id": null, "properties": {"province": "Vb", "city": "Mergozzo", "category": "storia e archeologia", "name": "Civico Museo Archeologico (Mergozzo)", "address": "Via Roma "}}, {"geometry": {"type": "Point", "coordinates": [8.42590332, 45.84310532]}, "type": "Feature", "id": null, "properties": {"province": "Vb", "city": "Omegna", "category": "scienza e tecnica", "name": "Museo Naturalistico Alpe Selviana (Omegna)", "address": "Via Selviana 42"}}, {"geometry": {"type": "Point", "coordinates": [8.40877819, 45.87607956]}, "type": "Feature", "id": null, "properties": {"province": "Vb", "city": "Omegna", "category": "tradizione", "name": "Fondazione Museo delle Arti e delle Industrie (Omegna)", "address": "Parco Pasquale Maulini 1"}}, {"geometry": {"type": "Point", "coordinates": [8.41695786, 45.96737289]}, "type": "Feature", "id": null, "properties": {"province": "Vb", "city": "Ornavasso", "category": "arte sacra", "name": "Museo Parrocchiale di Arte Sacra (Ornavasso)", "address": "Via Alfredo di Dio 99"}}, {"geometry": {"type": "Point", "coordinates": [8.36574459, 45.86992645]}, "type": "Feature", "id": null, "properties": {"province": "Vb", "city": "Quarna Sotto", "category": "tradizione", "name": "Museo Etnografico e dello Strumento Musicale a Fiato (Quarna Sotto)", "address": "Via Roma "}}, {"geometry": {"type": "Point", "coordinates": [8.53916359, 45.88471603]}, "type": "Feature", "id": null, "properties": {"province": "Vb", "city": "Stresa", "category": "arte sacra", "name": "Museo Rosminiano (Stresa)", "address": "Corso Umberto I 15"}}, {"geometry": {"type": "Point", "coordinates": [8.29054642, 45.93558502]}, "type": "Feature", "id": null, "properties": {"province": "Vb", "city": "Valstrona", "category": "arte sacra", "name": "Museo di Arte Sacra  (Valstrona)", "address": "Frazione Forno "}}, {"geometry": {"type": "Point", "coordinates": [8.28738117, 45.93595505]}, "type": "Feature", "id": null, "properties": {"province": "Vb", "city": "Valstrona", "category": "tradizione", "name": "Museo Arte e Tradizione (Valstrona)", "address": "Via Principale 22"}}, {"geometry": {"type": "Point", "coordinates": [8.48966217, 45.94625092]}, "type": "Feature", "id": null, "properties": {"province": "Vb", "city": "Verbania", "category": "storia e archeologia", "name": "Associazione Casa della Resistenza (Verbania)", "address": "Via Filippo Turati 9"}}, {"geometry": {"type": "Point", "coordinates": [8.26471329, 46.07326126]}, "type": "Feature", "id": null, "properties": {"province": "Vb", "city": "Villadossola", "category": "storia e archeologia", "name": "Sala Storica della Resistenza (Villadossola)", "address": "Via XXV Aprile 30"}}, {"geometry": {"type": "Point", "coordinates": [8.29828739, 45.1935463]}, "type": "Feature", "id": null, "properties": {"province": "Vc", "city": "Trino", "category": "storia e archeologia", "name": "Museo Civico \"Gianandrea Irico\" (Trino)", "address": "Piazza Garibaldi 7"}}, {"geometry": {"type": "Point", "coordinates": [8.47315025, 44.67510605]}, "type": "Feature", "id": null, "properties": {"province": "Al", "city": "Acqui Terme", "category": "tematici", "name": "Museo \"Ernesto e Mario Ferrari\" Artigiani del Ferro (Acqui Terme)", "address": "Via Morelli 2"}}, {"geometry": {"type": "Point", "coordinates": [8.53368378, 44.88664246]}, "type": "Feature", "id": null, "properties": {"province": "Al", "city": "Alessandria", "category": "storia e archeologia", "name": "Antiquarium Forum Fulvii (Alessandria)", "address": "Via Oviglio - Villa del Foro 10"}}, {"geometry": {"type": "Point", "coordinates": [8.61776829, 44.91836929]}, "type": "Feature", "id": null, "properties": {"province": "Al", "city": "Alessandria", "category": "tematici", "name": "Museo del Ferro \"Francesco Janniello\" (Alessandria)", "address": "Via Guasco 142/144"}}, {"geometry": {"type": "Point", "coordinates": [8.62162209, 44.92678833]}, "type": "Feature", "id": null, "properties": {"province": "Al", "city": "Alessandria", "category": "scienza e tecnica", "name": "Museo del Fiume (Alessandria)", "address": "Via Rettoria 13"}}, {"geometry": {"type": "Point", "coordinates": [8.61730385, 44.91254807]}, "type": "Feature", "id": null, "properties": {"province": "Al", "city": "Alessandria", "category": "arte moderna e contemporanea", "name": "I Percorsi del Museo Civico (Alessandria)", "address": "Via Parma 1"}}, {"geometry": {"type": "Point", "coordinates": [8.6204071, 44.91239548]}, "type": "Feature", "id": null, "properties": {"province": "Al", "city": "Alessandria", "category": "arte moderna e contemporanea", "name": "Sale d'arte (Alessandria)", "address": "Via Machiavelli 13"}}, {"geometry": {"type": "Point", "coordinates": [8.61739635, 44.91607285]}, "type": "Feature", "id": null, "properties": {"province": "Al", "city": "Alessandria", "category": "tradizione", "name": "Museo Etnografico \"C'era una volta\" (Alessandria)", "address": "Piazza della Gambarina 1"}}, {"geometry": {"type": "Point", "coordinates": [8.70049667, 44.76486969]}, "type": "Feature", "id": null, "properties": {"province": "Al", "city": "Basaluzzo", "category": "tradizione", "name": "Museo degli Antichi Mestieri (Basaluzzo)", "address": "Via Mulino "}}, {"geometry": {"type": "Point", "coordinates": [8.67554092, 44.82283401]}, "type": "Feature", "id": null, "properties": {"province": "Al", "city": "Bosco Marengo", "category": "arte sacra", "name": "Casa Natale di San Pio V (Bosco Marengo)", "address": "Piazza Castelvecchio "}}, {"geometry": {"type": "Point", "coordinates": [9.04029846, 44.81344604]}, "type": "Feature", "id": null, "properties": {"province": "Al", "city": "Brignano Frascata", "category": "storia e archeologia", "name": "Polo Museale (Brignano Frascata)", "address": "Piazza IV Novembre "}}, {"geometry": {"type": "Point", "coordinates": [8.94782257, 44.90446472]}, "type": "Feature", "id": null, "properties": {"province": "Al", "city": "Casalnoceto", "category": "tradizione", "name": "Museo delle Memorie del Passato (Casalnoceto)", "address": "Via Volpedo 1"}}, {"geometry": {"type": "Point", "coordinates": [0.0, 0.0]}, "type": "Feature", "id": null, "properties": {"province": "Al", "city": "Alessandria", "category": "arte sacra", "name": "Sala Museo San Paolo della Croce (Alessandria)", "address": "Piazza San Carlo "}}, {"geometry": {"type": "Point", "coordinates": [8.39077473, 45.07484055]}, "type": "Feature", "id": null, "properties": {"province": "Al", "city": "Cella Monte", "category": "ecomusei", "name": "Ecomuseo della Pietra da Cantoni (Cella Monte)", "address": "Via Barbano Dante 30"}}, {"geometry": {"type": "Point", "coordinates": [8.45631504, 44.99055862]}, "type": "Feature", "id": null, "properties": {"province": "Al", "city": "Cuccaro Monferrato", "category": "tematici", "name": "Museo del Centro Studi Colombiani (Cuccaro Monferrato)", "address": "Via Colonnello Mazza 1"}}, {"geometry": {"type": "Point", "coordinates": [9.15085506, 44.76121521]}, "type": "Feature", "id": null, "properties": {"province": "Al", "city": "Fabbrica Curone", "category": "tradizione", "name": "Museo della Civilt\u00e0 Contadina (Fabbrica Curone)", "address": "Frazione Morigliassi "}}, {"geometry": {"type": "Point", "coordinates": [8.71374321, 44.63555527]}, "type": "Feature", "id": null, "properties": {"province": "Al", "city": "Predosa", "category": "tematici", "name": "Museo Storico dell'Oro Italiano (Predosa)", "address": "Via Lung'Orba 1"}}, {"geometry": {"type": "Point", "coordinates": [8.37946224, 44.59492874]}, "type": "Feature", "id": null, "properties": {"province": "Al", "city": "Montechiaro d'Acqui", "category": "tradizione", "name": "Museo della Civilt\u00e0 Contadina di Santa Caterina (Montechiaro d'Acqui)", "address": "Piazza Battisti 1"}}, {"geometry": {"type": "Point", "coordinates": [8.56223583, 44.69018936]}, "type": "Feature", "id": null, "properties": {"province": "Al", "city": "Orsara Bormida", "category": "tradizione", "name": "Museo Etnografico dell'Agricoltura (Orsara Bormida)", "address": "Via Repubblica Argentina 3"}}, {"geometry": {"type": "Point", "coordinates": [8.64768791, 44.63961411]}, "type": "Feature", "id": null, "properties": {"province": "Al", "city": "Ovada", "category": "arte sacra", "name": "Museo Casa Natale di San Paolo della Croce (Ovada)", "address": "Via San Paolo 42"}}, {"geometry": {"type": "Point", "coordinates": [8.64774036, 44.67121124]}, "type": "Feature", "id": null, "properties": {"province": "Al", "city": "Rocca Grimalda", "category": "tematici", "name": "Museo della Maschera e del Costume Tradizionale (Rocca Grimalda)", "address": "Piazza Vittorio Veneto 1"}}, {"geometry": {"type": "Point", "coordinates": [9.05025101, 44.7070961]}, "type": "Feature", "id": null, "properties": {"province": "Al", "city": "Rocchetta Ligure", "category": "storia e archeologia", "name": "Museo della Resistenza e della Vita Sociale in Val Borbera (Rocchetta Ligure)", "address": "Via Umberto I 26"}}, {"geometry": {"type": "Point", "coordinates": [8.84918404, 44.71760941]}, "type": "Feature", "id": null, "properties": {"province": "Al", "city": "Serravalle Scrivia", "category": "arte moderna e contemporanea", "name": "Sale espositive di Villa Caffarena (Serravalle Scrivia)", "address": "Piazza Carducci 4"}}, {"geometry": {"type": "Point", "coordinates": [8.86903954, 44.72900009]}, "type": "Feature", "id": null, "properties": {"province": "Al", "city": "Stazzano", "category": "scienza e tecnica", "name": "Museo Civico di Storia Naturale (Stazzano)", "address": "Via Aldo Fossati 2"}}, {"geometry": {"type": "Point", "coordinates": [8.87336826, 44.9021225]}, "type": "Feature", "id": null, "properties": {"province": "Al", "city": "Tortona", "category": "scienza e tecnica", "name": "Museo delle macchine agricole \"Roberto Giuseppe Orsi\" (Tortona)", "address": "Via Emilia 450"}}, {"geometry": {"type": "Point", "coordinates": [8.86485481, 44.89741516]}, "type": "Feature", "id": null, "properties": {"province": "Al", "city": "Tortona", "category": "arte moderna e contemporanea", "name": "Quadreria della Fondazione Cassa di Risparmio (Tortona)", "address": "Corso Leoniero 6"}}, {"geometry": {"type": "Point", "coordinates": [8.64579201, 45.01412964]}, "type": "Feature", "id": null, "properties": {"province": "Al", "city": "Valenza", "category": "arte sacra", "name": "Museo dell'Opera del Duomo (Valenza)", "address": "Piazza XXXI Martiri "}}, {"geometry": {"type": "Point", "coordinates": [8.64579201, 45.01412964]}, "type": "Feature", "id": null, "properties": {"province": "Al", "city": "Valenza", "category": "arte moderna e contemporanea", "name": "Raccolta d'Arte Moderna (Valenza)", "address": "Piazza XXXI Martiri 1"}}, {"geometry": {"type": "Point", "coordinates": [8.98188114, 44.89109802]}, "type": "Feature", "id": null, "properties": {"province": "Al", "city": "Volpedo", "category": "arte moderna e contemporanea", "name": "Museo didattico Giuseppe Pellizza da Volpedo (Volpedo)", "address": "Piazza Quarto Stato "}}, {"geometry": {"type": "Point", "coordinates": [8.97847271, 44.89970779]}, "type": "Feature", "id": null, "properties": {"province": "Al", "city": "Volpedo", "category": "arte moderna e contemporanea", "name": "Studio del pittore Giuseppe Pellizza da Volpedo (Volpedo)", "address": "Via Rosano 1/A"}}, {"geometry": {"type": "Point", "coordinates": [8.84317207, 44.61578369]}, "type": "Feature", "id": null, "properties": {"province": "Al", "city": "Voltaggio", "category": "arte moderna e contemporanea", "name": "Pinacoteca dei Cappuccini di Voltaggio (Voltaggio)", "address": "Via Provinciale 1"}}, {"geometry": {"type": "Point", "coordinates": [8.56083298, 45.76045609]}, "type": "Feature", "id": null, "properties": {"province": "No", "city": "Arona", "category": "storia e archeologia", "name": "Museo Civico Archeologico (Arona)", "address": "Piazza San Graziano 34"}}, {"geometry": {"type": "Point", "coordinates": [8.69616985, 45.47806168]}, "type": "Feature", "id": null, "properties": {"province": "No", "city": "Galliate", "category": "arte moderna e contemporanea", "name": "Museo Civico \"Angelo Bozzola\" (Galliate)", "address": "Piazza Vittorio Veneto "}}, {"geometry": {"type": "Point", "coordinates": [8.56698608, 45.83307266]}, "type": "Feature", "id": null, "properties": {"province": "No", "city": "Lesa", "category": "tematici", "name": "Sala Manzoniana (Lesa)", "address": "Via alla Fontana 18"}}, {"geometry": {"type": "Point", "coordinates": [8.62490845, 45.44606018]}, "type": "Feature", "id": null, "properties": {"province": "No", "city": "Novara", "category": "tematici", "name": "Casa Museo \"Rognoni - Salvaneschi\" (Novara)", "address": "Via Amico Canobio 14"}}, {"geometry": {"type": "Point", "coordinates": [8.62058163, 45.44904709]}, "type": "Feature", "id": null, "properties": {"province": "No", "city": "Novara", "category": "scienza e tecnica", "name": "Museo di Storia Naturale Faraggiana Ferrandi (Novara)", "address": "Via G. Ferrari 13"}}, {"geometry": {"type": "Point", "coordinates": [8.62143135, 45.4455719]}, "type": "Feature", "id": null, "properties": {"province": "No", "city": "Novara", "category": "storia e archeologia", "name": "Museo Lapidario della Canonica (Novara)", "address": "Vicolo della Canonica 9/14"}}, {"geometry": {"type": "Point", "coordinates": [8.61853123, 45.44595337]}, "type": "Feature", "id": null, "properties": {"province": "No", "city": "Novara", "category": "storia e archeologia", "name": "Museo del Broletto (Novara)", "address": "Via Fratelli Rosselli 20"}}, {"geometry": {"type": "Point", "coordinates": [8.59968948, 45.44722366]}, "type": "Feature", "id": null, "properties": {"province": "No", "city": "Novara", "category": "storia e archeologia", "name": "Museo Storico Novarese \"Aldo Rossini\" (Novara)", "address": "Viale della Rimembranza - Colle della Vittoria "}}, {"geometry": {"type": "Point", "coordinates": [8.63842773, 45.59483719]}, "type": "Feature", "id": null, "properties": {"province": "No", "city": "Oleggio", "category": "tradizione", "name": "Museo Civico Etnografico \"Carlo Giacomo Fanchini\" (Oleggio)", "address": "Vicolo Chiesa 3"}}, {"geometry": {"type": "Point", "coordinates": [8.6383152, 45.59615326]}, "type": "Feature", "id": null, "properties": {"province": "No", "city": "Oleggio", "category": "arte sacra", "name": "Museo di Arte Religiosa padre Augusto Mozzetti (Oleggio)", "address": "Piazza Bertotti 1"}}, {"geometry": {"type": "Point", "coordinates": [8.40824413, 45.81855774]}, "type": "Feature", "id": null, "properties": {"province": "No", "city": "Pettenasco", "category": "ecomusei", "name": "Ecomuseo del Lago d'Orta e Mottarone (Pettenasco)", "address": "Via Fara 7/A"}}, {"geometry": {"type": "Point", "coordinates": [8.40995121, 45.81684494]}, "type": "Feature", "id": null, "properties": {"province": "No", "city": "Pettenasco", "category": "tradizione", "name": "Museo dell'Arte della Tornitura del Legno (Pettenasco)", "address": "Via Vittorio Veneto "}}, {"geometry": {"type": "Point", "coordinates": [8.38301182, 45.63317871]}, "type": "Feature", "id": null, "properties": {"province": "No", "city": "Romagnano Sesia", "category": "tematici", "name": "Museo Storico Etnografico della Bassa Valsesia (Romagnano Sesia)", "address": "Via Torre 2"}}, {"geometry": {"type": "Point", "coordinates": [8.55914211, 45.63494492]}, "type": "Feature", "id": null, "properties": {"province": "No", "city": "Suno", "category": "tematici", "name": "Mini Museo degli Attrezzi Agricoli (Suno)", "address": "Via Mottoscarone 55"}}, {"geometry": {"type": "Point", "coordinates": [8.63376617, 45.66689682]}, "type": "Feature", "id": null, "properties": {"province": "No", "city": "Varallo Pombia", "category": "storia e archeologia", "name": "Museo Archeologico, Pinacoteca Comunale (Varallo Pombia)", "address": "Via Simonetta 3"}}, {"geometry": {"type": "Point", "coordinates": [6.99921608, 44.45000076]}, "type": "Feature", "id": null, "properties": {"province": "Cn", "city": "Acceglio", "category": "tradizione", "name": "Museo Etnografico \"La Misoun d'en Bot\" (Acceglio)", "address": "Localit\u00e0 Chialvetta "}}, {"geometry": {"type": "Point", "coordinates": [6.9872489, 44.47536469]}, "type": "Feature", "id": null, "properties": {"province": "Cn", "city": "Acceglio", "category": "arte sacra", "name": "Museo di Arte Sacra (Acceglio)", "address": "Borgo Villa "}}, {"geometry": {"type": "Point", "coordinates": [7.35496569, 44.7178688]}, "type": "Feature", "id": null, "properties": {"province": "Cn", "city": "Barge", "category": "tradizione", "name": "Museo Etnografico \"La Brunetta\" (Barge)", "address": "Via Antica Torriana 35"}}, {"geometry": {"type": "Point", "coordinates": [7.00587177, 44.57925797]}, "type": "Feature", "id": null, "properties": {"province": "Cn", "city": "Bellino", "category": "scienza e tecnica", "name": "Museo del Tempo e delle Meridiane (Bellino)", "address": "Borgata Celle "}}, {"geometry": {"type": "Point", "coordinates": [7.55111551, 44.33012009]}, "type": "Feature", "id": null, "properties": {"province": "Cn", "city": "Boves", "category": "scienza e tecnica", "name": "Museo del Fungo e di Scienze Naturali (Boves)", "address": "Piazza Borelli 6"}}, {"geometry": {"type": "Point", "coordinates": [7.55722332, 44.32855988]}, "type": "Feature", "id": null, "properties": {"province": "Cn", "city": "Boves", "category": "tematici", "name": "Museo della Castagna (Boves)", "address": "Via Roncaia \u0096 Fr. Madonna dei Boschi 24"}}, {"geometry": {"type": "Point", "coordinates": [7.85466576, 44.69923019]}, "type": "Feature", "id": null, "properties": {"province": "Cn", "city": "Bra", "category": "storia e archeologia", "name": "Museo Civico di Archeologia Storia Arte (Bra)", "address": "Via Parpera 4"}}, {"geometry": {"type": "Point", "coordinates": [7.1755929, 44.3999939]}, "type": "Feature", "id": null, "properties": {"province": "Cn", "city": "Castelmagno", "category": "tradizione", "name": "Museo Etnografico \"Muzeu dal Travai d'Is\u00ec\" (Castelmagno)", "address": "Localit\u00e0 Chiappi "}}, {"geometry": {"type": "Point", "coordinates": [7.21961975, 44.41292572]}, "type": "Feature", "id": null, "properties": {"province": "Cn", "city": "Castelmagno", "category": "tradizione", "name": "Museo Etnografico \"Pichot Muzeu d'la vita d'is\u00ec\" (Castelmagno)", "address": "Frazione Colletto "}}, {"geometry": {"type": "Point", "coordinates": [7.17919207, 44.48316956]}, "type": "Feature", "id": null, "properties": {"province": "Cn", "city": "Celle di Macra", "category": "ecomusei", "name": "Ecomuseo Alta Val Maira (Celle di Macra)", "address": "Borgata Chiesa 1"}}, {"geometry": {"type": "Point", "coordinates": [7.85703468, 44.65285492]}, "type": "Feature", "id": null, "properties": {"province": "Cn", "city": "Cherasco", "category": "storia e archeologia", "name": "Museo Civico \"Giovan Battista Adriani\" (Cherasco)", "address": "Via dell'Ospedale 40"}}, {"geometry": {"type": "Point", "coordinates": [7.66109371, 44.24461365]}, "type": "Feature", "id": null, "properties": {"province": "Cn", "city": "Chiusa Pesio", "category": "arte sacra", "name": "Museo Naturalistico Missionario della Certosa (Chiusa di Pesio)", "address": "Borgata Certosa "}}, {"geometry": {"type": "Point", "coordinates": [7.91219759, 44.48176193]}, "type": "Feature", "id": null, "properties": {"province": "Cn", "city": "Clavesana", "category": "storia e archeologia", "name": "Museo Storico Etnografico e di Tradizione (Clavesana)", "address": "Piazza Vittorio Emanuele II 7"}}, {"geometry": {"type": "Point", "coordinates": [8.19221115, 44.5810051]}, "type": "Feature", "id": null, "properties": {"province": "Cn", "city": "Cortemilia", "category": "ecomusei", "name": "Ecomuseo dei Terrazzamenti e della Vite (Cortemilia)", "address": "Via Dante Alighieri 4"}}, {"geometry": {"type": "Point", "coordinates": [7.53107166, 44.37312317]}, "type": "Feature", "id": null, "properties": {"province": "Cn", "city": "Cuneo", "category": "arte moderna e contemporanea", "name": "Fondazione Peano (Cuneo)", "address": "Corso Francia 47"}}, {"geometry": {"type": "Point", "coordinates": [7.55016041, 44.39465332]}, "type": "Feature", "id": null, "properties": {"province": "Cn", "city": "Cuneo", "category": "storia e archeologia", "name": "Museo Civico (Cuneo)", "address": "Via Santa Maria 10"}}, {"geometry": {"type": "Point", "coordinates": [7.01774883, 44.35075378]}, "type": "Feature", "id": null, "properties": {"province": "Cn", "city": "Pietraporzio", "category": "ecomusei", "name": "Ecomuseo della Pastorizia (Pietraporzio)", "address": "Frazione Pontebernardo "}}, {"geometry": {"type": "Point", "coordinates": [7.8398695, 44.24113846]}, "type": "Feature", "id": null, "properties": {"province": "Cn", "city": "Frabosa Soprana", "category": "scienza e tecnica", "name": "Grotta di Bossea (Frabosa Soprana)", "address": "Localit\u00e0 Bossea 10"}}, {"geometry": {"type": "Point", "coordinates": [7.81807423, 44.28327179]}, "type": "Feature", "id": null, "properties": {"province": "Cn", "city": "Frabosa Sottana", "category": "scienza e tecnica", "name": "Grotte del Caudano (Frabosa Sottana)", "address": "Localit\u00e0 Fontane Serra "}}, {"geometry": {"type": "Point", "coordinates": [8.02983665, 44.19703293]}, "type": "Feature", "id": null, "properties": {"province": "Cn", "city": "Garessio", "category": "storia e archeologia", "name": "Museo Civico (Garessio)", "address": "c/o Palazzo Comunale (Salone degli affreschi) - Piazza G. Carrara 135"}}, {"geometry": {"type": "Point", "coordinates": [8.02983665, 44.19703293]}, "type": "Feature", "id": null, "properties": {"province": "Cn", "city": "Garessio", "category": "arte moderna e contemporanea", "name": "Pinacoteca \"Eugenio Colmo\" (Garessio)", "address": "Piazza G. Carrara 135"}}, {"geometry": {"type": "Point", "coordinates": [8.03085899, 44.20210648]}, "type": "Feature", "id": null, "properties": {"province": "Cn", "city": "Garessio", "category": "arte sacra", "name": "Museo Storico del Santuario (Garessio)", "address": "Piazza del Santuario "}}, {"geometry": {"type": "Point", "coordinates": [7.95386076, 44.63670349]}, "type": "Feature", "id": null, "properties": {"province": "Cn", "city": "La Morra", "category": "tematici", "name": "Museo Ratti dei Vini d'Alba (La Morra)", "address": "Frazione Annunziata 2"}}, {"geometry": {"type": "Point", "coordinates": [8.06853962, 44.76708984]}, "type": "Feature", "id": null, "properties": {"province": "Cn", "city": "Magliano Alfieri", "category": "tradizione", "name": "Museo di Arti e Tradizioni Popolari (Magliano Alfieri)", "address": "Via Alfieri 6"}}, {"geometry": {"type": "Point", "coordinates": [8.08536053, 44.46792984]}, "type": "Feature", "id": null, "properties": {"province": "Cn", "city": "Mombarcaro", "category": "tradizione", "name": "Museo Storico Militare (Mombarcaro)", "address": "Piazza Libert\u00e0 1"}}, {"geometry": {"type": "Point", "coordinates": [7.83159113, 44.38667297]}, "type": "Feature", "id": null, "properties": {"province": "Cn", "city": "Mondov\u00ec", "category": "scienza e tecnica", "name": "Museo Civico della Stampa (Mondov\u00ec)", "address": "Via Misericordia 3"}}, {"geometry": {"type": "Point", "coordinates": [7.96076488, 44.81265259]}, "type": "Feature", "id": null, "properties": {"province": "Cn", "city": "Mont\u00e0", "category": "ecomusei", "name": "Ecomuseo delle Rocche del Roero (Mont\u00e0)", "address": "Piazzetta della Vecchia Segheria 2/B"}}, {"geometry": {"type": "Point", "coordinates": [7.32407379, 44.40922165]}, "type": "Feature", "id": null, "properties": {"province": "Cn", "city": "Monterosso Grana", "category": "tradizione", "name": "Museo Coumboscuro della Civilt\u00e0 Provenzale Alpina (Monterosso Grana)", "address": "Frazione San Lucio de Coumboscuro "}}, {"geometry": {"type": "Point", "coordinates": [7.18829727, 44.69238281]}, "type": "Feature", "id": null, "properties": {"province": "Cn", "city": "Ostana", "category": "tradizione", "name": "Civico Museo Etnografico (Ostana)", "address": "Via Roma 54"}}, {"geometry": {"type": "Point", "coordinates": [7.91574955, 44.27673721]}, "type": "Feature", "id": null, "properties": {"province": "Cn", "city": "Pamparato", "category": "tradizione", "name": "Museo degli Usi e dei Costumi della Gente di Montagna (Pamparato)", "address": "Via Chiesa 39"}}, {"geometry": {"type": "Point", "coordinates": [8.07899952, 44.51354218]}, "type": "Feature", "id": null, "properties": {"province": "Cn", "city": "Prunetto", "category": "tradizione", "name": "Museo Etnografico \"La Bataiera\" (Prunetto)", "address": "Borgata Castello "}}, {"geometry": {"type": "Point", "coordinates": [7.482059, 44.31721115]}, "type": "Feature", "id": null, "properties": {"province": "Cn", "city": "Roccavione", "category": "tradizione", "name": "Museo Etnografico e Museo del \"Vecchio Mulino\" (Roccavione)", "address": "Via Molino 11"}}, {"geometry": {"type": "Point", "coordinates": [7.48600721, 44.64448929]}, "type": "Feature", "id": null, "properties": {"province": "Cn", "city": "Saluzzo", "category": "arte moderna e contemporanea", "name": "Museo Casa Cavassa (Saluzzo)", "address": "Via San Giovanni 5"}}, {"geometry": {"type": "Point", "coordinates": [7.39784288, 44.24062729]}, "type": "Feature", "id": null, "properties": {"province": "Cn", "city": "Entracque", "category": "scienza e tecnica", "name": "Centro Faunistico Uomini e Lupi (Entracque)", "address": "Piazza Giustizia e Libert\u00e0 3"}}, {"geometry": {"type": "Point", "coordinates": [7.9764781, 44.70240402]}, "type": "Feature", "id": null, "properties": {"province": "Cn", "city": "Santa Vittoria d'Alba", "category": "tematici", "name": "Diageo Operations Italy SpA (Santa Vittoria d'Alba)", "address": "Strada Statale 63"}}, {"geometry": {"type": "Point", "coordinates": [8.2537775, 44.74625778]}, "type": "Feature", "id": null, "properties": {"province": "Cn", "city": "Santo Stefano Belbo", "category": "tradizione", "name": "Casa Museo di Nuto (Santo Stefano Belbo)", "address": "Localit\u00e0 Piana "}}, {"geometry": {"type": "Point", "coordinates": [7.66106892, 44.6465683]}, "type": "Feature", "id": null, "properties": {"province": "Cn", "city": "Savigliano", "category": "storia e archeologia", "name": "Museo Civico Antonino Olmo, Gipsoteca Davide Calandra (Savigliano)", "address": "Via San Francesco 17/19"}}, {"geometry": {"type": "Point", "coordinates": [7.42877483, 44.2947998]}, "type": "Feature", "id": null, "properties": {"province": "Cn", "city": "Valdieri", "category": "arte sacra", "name": "Museo di Arte Sacra (Valdieri)", "address": "Frazione Andonno "}}, {"geometry": {"type": "Point", "coordinates": [8.24099827, 44.7113533]}, "type": "Feature", "id": null, "properties": {"province": "Cn", "city": "Santo Stefano Belbo", "category": "tematici", "name": "Casa Natale Cesare Pavese (Santo Stefano Belbo)", "address": "Via Cesare Pavese 20"}}, {"geometry": {"type": "Point", "coordinates": [7.53273869, 44.24549866]}, "type": "Feature", "id": null, "properties": {"province": "Cn", "city": "Vernante", "category": "tematici", "name": "Museo civico Attilio Mussino (Vernante)", "address": "Vicolo Molino Sottano 6"}}, {"geometry": {"type": "Point", "coordinates": [0.0, 0.0]}, "type": "Feature", "id": null, "properties": {"province": "Cn", "city": "Vernante", "category": "tradizione", "name": "Museo Etnografico \"C'era una volta\" (Vernante)", "address": "Via Umberto I 119"}}, {"geometry": {"type": "Point", "coordinates": [7.99322557, 44.76322174]}, "type": "Feature", "id": null, "properties": {"province": "Cn", "city": "Vezza d'Alba", "category": "scienza e tecnica", "name": "Museo Naturalistico del Roero (Vezza d'Alba)", "address": "Via Fissore 1"}}, {"geometry": {"type": "Point", "coordinates": [7.74035883, 44.34107971]}, "type": "Feature", "id": null, "properties": {"province": "Cn", "city": "Villanova Mondov\u00ec", "category": "scienza e tecnica", "name": "Grotta dei Dossi (Villanova Mondov\u00ec)", "address": "Localit\u00e0 Dossi "}}, {"geometry": {"type": "Point", "coordinates": [7.48846436, 44.32965851]}, "type": "Feature", "id": null, "properties": {"province": "Cn", "city": "Boves", "category": "tematici", "name": "Museo della Resistenza. Momenti di vita partigiana in Bisalta (Boves)", "address": "Via Marconi 2"}}, {"geometry": {"type": "Point", "coordinates": [7.84636402, 44.69559479]}, "type": "Feature", "id": null, "properties": {"province": "Cn", "city": "Bra", "category": "tematici", "name": "Museo del Giocattolo \"Quasi per gioco\" (Bra)", "address": "Via Guala 45"}}, {"geometry": {"type": "Point", "coordinates": [7.94562197, 44.53028107]}, "type": "Feature", "id": null, "properties": {"province": "Cn", "city": "Dogliani", "category": "storia e archeologia", "name": "Civico Museo Storico Archeologico \u0093Giuseppe Gabetti\u0094 (Dogliani)", "address": "Piazza San Paolo 10"}}, {"geometry": {"type": "Point", "coordinates": [7.35301733, 44.46684647]}, "type": "Feature", "id": null, "properties": {"province": "Cn", "city": "Dronero", "category": "arte moderna e contemporanea", "name": "Museo Civico Luigi Mall\u00e9 (Dronero)", "address": "Via IV Novembre 54"}}, {"geometry": {"type": "Point", "coordinates": [7.39626122, 44.23892975]}, "type": "Feature", "id": null, "properties": {"province": "Cn", "city": "Entracque", "category": "arte sacra", "name": "Museo di Arte Sacra (Entracque)", "address": "Piazza Giovanni XXIII 1"}}, {"geometry": {"type": "Point", "coordinates": [7.72570419, 44.54866028]}, "type": "Feature", "id": null, "properties": {"province": "Cn", "city": "Fossano", "category": "arte sacra", "name": "Museo Diocesano (Fossano)", "address": "Via Vescovado 8"}}, {"geometry": {"type": "Point", "coordinates": [0.0, 0.0]}, "type": "Feature", "id": null, "properties": {"province": "Cn", "city": "Frabosa Soprana", "category": "tradizione", "name": "Museo Etnografico \"Cesare Vinaj\" (Frabosa Soprana)", "address": "Piazza Bersezio 2"}}, {"geometry": {"type": "Point", "coordinates": [0.0, 0.0]}, "type": "Feature", "id": null, "properties": {"province": "Cn", "city": "Grinzane Cavour", "category": "tradizione", "name": "Museo Etnografico (Grinzane Cavour)", "address": " "}}, {"geometry": {"type": "Point", "coordinates": [7.39981127, 44.27750778]}, "type": "Feature", "id": null, "properties": {"province": "Cn", "city": "Valdieri", "category": "ecomusei", "name": "Ecomuseo della Segale (Valdieri)", "address": "Via Livio Bianco 5"}}, {"geometry": {"type": "Point", "coordinates": [8.15024376, 44.67653275]}, "type": "Feature", "id": null, "properties": {"province": "Cn", "city": "Mango", "category": "storia e archeologia", "name": "Raccolta Permanente della Casa delle Memorie (Mango)", "address": "Piazza Salvatore Cane 2"}}, {"geometry": {"type": "Point", "coordinates": [8.13963223, 44.37489319]}, "type": "Feature", "id": null, "properties": {"province": "Cn", "city": "Montezemolo", "category": "tematici", "name": "Museo delle Api e del Miele (Montezemolo)", "address": "Localit\u00e0 Fabbrica 3"}}, {"geometry": {"type": "Point", "coordinates": [7.38895893, 44.65489578]}, "type": "Feature", "id": null, "properties": {"province": "Cn", "city": "Revello", "category": "storia e archeologia", "name": "Museo \"Carlo Denina\" (Revello)", "address": "Piazza Denina 2"}}, {"geometry": {"type": "Point", "coordinates": [8.05906487, 44.6300087]}, "type": "Feature", "id": null, "properties": {"province": "Cn", "city": "Rodello", "category": "arte moderna e contemporanea", "name": "Museo d'Arte Moderna e Religiosa \"Dedalo Montali\" (Rodello)", "address": "Via Roma 1"}}, {"geometry": {"type": "Point", "coordinates": [7.82658052, 44.38625717]}, "type": "Feature", "id": null, "properties": {"province": "Cn", "city": "Mondov\u00ec", "category": "storia e archeologia", "name": "Museo Storico Primo Reggimento Alpini (Mondov\u00ec)", "address": "Via Vasco 3"}}, {"geometry": {"type": "Point", "coordinates": [8.20243835, 44.8992424]}, "type": "Feature", "id": null, "properties": {"province": "At", "city": "Asti", "category": "storia e archeologia", "name": "Sinagoga e Museo Ebraico (Asti)", "address": "Via Ottolenghi 8"}}, {"geometry": {"type": "Point", "coordinates": [8.28345776, 44.72360611]}, "type": "Feature", "id": null, "properties": {"province": "At", "city": "Canelli", "category": "arte moderna e contemporanea", "name": "Centro per la cultura e l'arte Luigi Bosca (Canelli)", "address": "Via Giuliani 21"}}, {"geometry": {"type": "Point", "coordinates": [8.28534317, 44.7885704]}, "type": "Feature", "id": null, "properties": {"province": "At", "city": "Castelnuovo Calcea", "category": "tematici", "name": "Centro Culturale Angelo Brofferio e Museo \"Me ritorn\" (Castelnuovo Calcea)", "address": "Piazza Castello 1"}}, {"geometry": {"type": "Point", "coordinates": [8.10114479, 44.97362137]}, "type": "Feature", "id": null, "properties": {"province": "At", "city": "Cinaglio", "category": "tematici", "name": "Gipsoteca \"Emanuele Gonetto\" (Cinaglio)", "address": "Via Regina Margherita 2"}}, {"geometry": {"type": "Point", "coordinates": [8.18070412, 44.7878952]}, "type": "Feature", "id": null, "properties": {"province": "At", "city": "Costigliole d'Asti", "category": "tradizione", "name": "Museo del Barbera (Costigliole d'Asti)", "address": "Via Roma 9"}}, {"geometry": {"type": "Point", "coordinates": [8.18063831, 44.78712845]}, "type": "Feature", "id": null, "properties": {"province": "At", "city": "Costigliole d'Asti", "category": "arte sacra", "name": "Museo Arte Sacra (Costigliole d'Asti)", "address": "Via Don Renato Cellino 11"}}, {"geometry": {"type": "Point", "coordinates": [8.31183052, 45.0405426]}, "type": "Feature", "id": null, "properties": {"province": "At", "city": "Grazzano Badoglio", "category": "storia e archeologia", "name": "Casa Museo Badoglio (Grazzano Badoglio)", "address": "Via Pietro Badoglio 20"}}, {"geometry": {"type": "Point", "coordinates": [7.96433258, 45.04098511]}, "type": "Feature", "id": null, "properties": {"province": "At", "city": "Castelnuovo Don Bosco", "category": "ecomusei", "name": "Ecomuseo del Basso Monferrato Astigiano (Castelnuovo Don Bosco)", "address": "Fraz. Morialdo 82"}}, {"geometry": {"type": "Point", "coordinates": [8.36924267, 44.75981522]}, "type": "Feature", "id": null, "properties": {"province": "At", "city": "Nizza Monferrato", "category": "scienza e tecnica", "name": "Sug@R(T)_house (Nizza Monferrato)", "address": "Corso Acqui, 254 "}}, {"geometry": {"type": "Point", "coordinates": [8.04858875, 45.05294037]}, "type": "Feature", "id": null, "properties": {"province": "At", "city": "Piov\u00e0 Massaia", "category": "tematici", "name": "Museo del Combattente (Piov\u00e0 Massaia)", "address": "Via Roma 1"}}, {"geometry": {"type": "Point", "coordinates": [8.06615734, 44.83568573]}, "type": "Feature", "id": null, "properties": {"province": "At", "city": "San Damiano d'Asti", "category": "scienza e tecnica", "name": "Museo Civico (San Damiano d'Asti)", "address": "Via Marconi 5"}}, {"geometry": {"type": "Point", "coordinates": [8.10322762, 44.88803864]}, "type": "Feature", "id": null, "properties": {"province": "At", "city": "Tigliole", "category": "tematici", "name": "Museo \"L'arte del Sellaio\" (Tigliole)", "address": "Strada Stazione San Damiano 58"}}, {"geometry": {"type": "Point", "coordinates": [7.76895237, 45.36210251]}, "type": "Feature", "id": null, "properties": {"province": "To", "city": "Agli\u00e8", "category": "arte antica", "name": "Castello Ducale (Agli\u00e9)", "address": "Piazza del Castello 2"}}, {"geometry": {"type": "Point", "coordinates": [7.52620649, 45.09767151]}, "type": "Feature", "id": null, "properties": {"province": "To", "city": "Alpignano", "category": "tematici", "name": "Ecomuseo Sogno di luce (Alpignano)", "address": "Via Matteotti 2"}}, {"geometry": {"type": "Point", "coordinates": [7.8669858, 45.03537369]}, "type": "Feature", "id": null, "properties": {"province": "To", "city": "Andezeno", "category": "tradizione", "name": "Museo delle Contadinerie e del Giocattolo Antico (Andezeno)", "address": "Corso Vittorio Emanuele II 1"}}, {"geometry": {"type": "Point", "coordinates": [7.88074255, 45.52762604]}, "type": "Feature", "id": null, "properties": {"province": "To", "city": "Andrate", "category": "tradizione", "name": "Museo della Civilt\u00e0 Contadina (Andrate)", "address": "Regione Salamia "}}, {"geometry": {"type": "Point", "coordinates": [7.21782017, 44.84954071]}, "type": "Feature", "id": null, "properties": {"province": "To", "city": "Angrogna", "category": "tradizione", "name": "Museo Scuola Odin-Bertot (Angrogna)", "address": "Localit\u00e0 Odin "}}, {"geometry": {"type": "Point", "coordinates": [7.25127792, 44.84485245]}, "type": "Feature", "id": null, "properties": {"province": "To", "city": "Angrogna", "category": "tradizione", "name": "Museo Etnografico (Angrogna)", "address": "Borgata Pons "}}, {"geometry": {"type": "Point", "coordinates": [7.3985033, 45.08053207]}, "type": "Feature", "id": null, "properties": {"province": "To", "city": "Avigliana", "category": "tradizione", "name": "Museo Etnografico della Scuola \"Defendente Ferrari\" (Avigliana)", "address": "Via Vittorio Veneto 3"}}, {"geometry": {"type": "Point", "coordinates": [7.21839714, 45.30220795]}, "type": "Feature", "id": null, "properties": {"province": "To", "city": "Balme", "category": "tradizione", "name": "Ecomuseo delle guide alpine \"Antonio Castagneri\" (Balme)", "address": "Via Capoluogo 139"}}, {"geometry": {"type": "Point", "coordinates": [7.21806622, 45.30217361]}, "type": "Feature", "id": null, "properties": {"province": "To", "city": "Balme", "category": "tradizione", "name": "Museo Etnografico del rifugio \"Bartolomeo Gastaldi\" (Balme)", "address": "Crot Del Ciaussin\u00e8, Mt. 2659 "}}, {"geometry": {"type": "Point", "coordinates": [6.68318033, 45.05947876]}, "type": "Feature", "id": null, "properties": {"province": "To", "city": "Bardonecchia", "category": "arte sacra", "name": "Museo di Arte Religiosa Alpina (Bardonecchia)", "address": "P.tta del Carmine, fraz. Melezet "}}, {"geometry": {"type": "Point", "coordinates": [7.12870502, 45.13805389]}, "type": "Feature", "id": null, "properties": {"province": "To", "city": "Bussoleno", "category": "scienza e tecnica", "name": "Museo del Trasporto Ferroviario attraverso le Alpi FERALP Team (Bussoleno)", "address": "Via Susa 9"}}, {"geometry": {"type": "Point", "coordinates": [7.78574085, 44.97500229]}, "type": "Feature", "id": null, "properties": {"province": "To", "city": "Cambiano", "category": "ecomusei", "name": "Munlab Ecomuseo dell'Argilla (Cambiano)", "address": "Via Camporelle 50"}}, {"geometry": {"type": "Point", "coordinates": [7.38704062, 45.33952713]}, "type": "Feature", "id": null, "properties": {"province": "To", "city": "Cantoira", "category": "storia e archeologia", "name": "Ecomuseo Antica Miniera di Talco Brunetta (Cantoira)", "address": "Miniera Brunetta "}}, {"geometry": {"type": "Point", "coordinates": [7.67620659, 44.90782928]}, "type": "Feature", "id": null, "properties": {"province": "To", "city": "Carignano", "category": "storia e archeologia", "name": "Museo Civico \"Giacomo Rodolfo\" (Carignano)", "address": "Via Frichieri 13"}}, {"geometry": {"type": "Point", "coordinates": [7.71982813, 44.84685898]}, "type": "Feature", "id": null, "properties": {"province": "To", "city": "Carmagnola", "category": "scienza e tecnica", "name": "Museo Civico Navale (Carmagnola)", "address": "Piazza Mazzini 10"}}, {"geometry": {"type": "Point", "coordinates": [7.78000546, 45.13710785]}, "type": "Feature", "id": null, "properties": {"province": "To", "city": "Settimo Torinese", "category": "ecomusei", "name": "Ecomuseo del Freidano (Settimo Torinese)", "address": "Via Ariosto 36 bis"}}, {"geometry": {"type": "Point", "coordinates": [7.04791975, 45.13689804]}, "type": "Feature", "id": null, "properties": {"province": "To", "city": "Susa", "category": "arte sacra", "name": "Museo Diocesano di Arte Sacra (Susa)", "address": "Via Mazzini 1"}}, {"geometry": {"type": "Point", "coordinates": [7.69291925, 45.06639862]}, "type": "Feature", "id": null, "properties": {"province": "To", "city": "Torino", "category": "scienza e tecnica", "name": "Archivio Storico Museo Italgas (Torino)", "address": "Via Po 53 bis"}}, {"geometry": {"type": "Point", "coordinates": [7.66021252, 45.07150269]}, "type": "Feature", "id": null, "properties": {"province": "To", "city": "Torino", "category": "scienza e tecnica", "name": "CEMED - Centro Museo e Documentazione Storica (Torino)", "address": "Via Cavalli 22/H"}}, {"geometry": {"type": "Point", "coordinates": [7.67996788, 45.04565811]}, "type": "Feature", "id": null, "properties": {"province": "To", "city": "Torino", "category": "scienza e tecnica", "name": "Centro e Archivio Storico FIAT (Torino)", "address": "Via Chiabrera 20"}}, {"geometry": {"type": "Point", "coordinates": [7.66831732, 45.08438873]}, "type": "Feature", "id": null, "properties": {"province": "To", "city": "Torino", "category": "scienza e tecnica", "name": "Museo \u0093A come Ambiente\u0094 (Torino)", "address": "Corso Umbria 90"}}, {"geometry": {"type": "Point", "coordinates": [7.58046007, 45.05973053]}, "type": "Feature", "id": null, "properties": {"province": "To", "city": "Grugliasco", "category": "tematici", "name": "Museo del Grande Torino e della Leggenda Granata (Grugliasco)", "address": "Via La Salle 87"}}, {"geometry": {"type": "Point", "coordinates": [7.64876747, 45.10385895]}, "type": "Feature", "id": null, "properties": {"province": "To", "city": "Torino", "category": "tematici", "name": "Centro per la cultura ludica (Torino)", "address": "Via Fiesole 15"}}, {"geometry": {"type": "Point", "coordinates": [7.68649149, 45.07040024]}, "type": "Feature", "id": null, "properties": {"province": "To", "city": "Torino", "category": "arte antica", "name": "Palazzo Madama \u0096 Museo Civico d\u0092Arte Antica (Torino)", "address": "Piazza Castello "}}, {"geometry": {"type": "Point", "coordinates": [7.6749568, 45.07713699]}, "type": "Feature", "id": null, "properties": {"province": "To", "city": "Torino", "category": "storia e archeologia", "name": "Museo Diffuso della Resistenza, della Deportazione, della Guerra, dei Diritti e della Libert\u00e0 (Torino)", "address": "Corso Valdocco 4/A"}}, {"geometry": {"type": "Point", "coordinates": [7.6558342, 45.07442093]}, "type": "Feature", "id": null, "properties": {"province": "To", "city": "Torino", "category": "tematici", "name": "Museo Etnografico e di Scienze Naturali dei Padri della Consolata (Torino)", "address": "Corso Ferrucci 12 bis/14"}}, {"geometry": {"type": "Point", "coordinates": [7.66611052, 45.0795784]}, "type": "Feature", "id": null, "properties": {"province": "To", "city": "Torino", "category": "arte sacra", "name": "Museo Francesco Fa\u00e0 di Bruno (Torino)", "address": "Via San Donato 31"}}, {"geometry": {"type": "Point", "coordinates": [7.68560076, 45.06355667]}, "type": "Feature", "id": null, "properties": {"province": "To", "city": "Torino", "category": "scienza e tecnica", "name": "Museo di Storia Naturale Franchetti-Colibr\u00ec (Torino)", "address": "Via San Francesco Da Paola 23"}}, {"geometry": {"type": "Point", "coordinates": [7.67282629, 45.06873703]}, "type": "Feature", "id": null, "properties": {"province": "To", "city": "Torino", "category": "storia e archeologia", "name": "Museo Storico Nazionale dell'Artiglieria (Torino)", "address": "Corso Galileo Ferraris 0"}}, {"geometry": {"type": "Point", "coordinates": [7.64996147, 45.08804321]}, "type": "Feature", "id": null, "properties": {"province": "To", "city": "Torino", "category": "scienza e tecnica", "name": "Museo Storico dei Vigili del Fuoco (Torino)", "address": "Corso Regina Margherita 330"}}, {"geometry": {"type": "Point", "coordinates": [7.5876956, 45.06125641]}, "type": "Feature", "id": null, "properties": {"province": "To", "city": "Grugliasco", "category": "scienza e tecnica", "name": "Museo dell'Agricoltura del Piemonte (Grugliasco)", "address": "Via Leonardo Da Vinci 44"}}, {"geometry": {"type": "Point", "coordinates": [7.68049812, 45.04920959]}, "type": "Feature", "id": null, "properties": {"province": "To", "city": "Torino", "category": "scienza e tecnica", "name": "Museo di Anatomia umana \"Luigi Rolando\" dell\u0092Universit\u00e0 degli Studi di Torino (Torino)", "address": "Corso Massimo D\u1e40Azeglio 52"}}, {"geometry": {"type": "Point", "coordinates": [7.68753719, 45.06414795]}, "type": "Feature", "id": null, "properties": {"province": "To", "city": "Torino", "category": "tradizione", "name": "Museo di Antropologia ed Etnografia (Torino)", "address": "via Accademia Albertina 17"}}, {"geometry": {"type": "Point", "coordinates": [7.67648983, 45.08045959]}, "type": "Feature", "id": null, "properties": {"province": "To", "city": "Torino", "category": "arte sacra", "name": "Museo di Devozione Mariana (Torino)", "address": "Via Maria Ausiliatrice 32"}}, {"geometry": {"type": "Point", "coordinates": [7.70250416, 45.05397034]}, "type": "Feature", "id": null, "properties": {"province": "To", "city": "Torino", "category": "scienza e tecnica", "name": "Museo di Storia Naturale Don Bosco e delle Apparecchiature Scientifiche del Liceo Valsalice (Torino)", "address": "Viale Enrico Thovez 37"}}, {"geometry": {"type": "Point", "coordinates": [7.22007513, 44.82244873]}, "type": "Feature", "id": null, "properties": {"province": "To", "city": "Torre Pellice", "category": "arte moderna e contemporanea", "name": "Civica Galleria d'Arte Contemporanea \"Filippo Scroppo\" (Torre Pellice)", "address": "Via Roberto D'Azeglio 10"}}, {"geometry": {"type": "Point", "coordinates": [7.21880198, 44.82047272]}, "type": "Feature", "id": null, "properties": {"province": "To", "city": "Torre Pellice", "category": "tematici", "name": "Museo Valdese (Torre Pellice)", "address": "Via Beckwith 3"}}, {"geometry": {"type": "Point", "coordinates": [7.21683645, 45.23217773]}, "type": "Feature", "id": null, "properties": {"province": "To", "city": "Usseglio", "category": "scienza e tecnica", "name": "Museo Civico Alpino \"Arnaldo Tazzetti\" (Usseglio)", "address": "Piazza Luigi Cibrario "}}, {"geometry": {"type": "Point", "coordinates": [7.49546051, 44.84277344]}, "type": "Feature", "id": null, "properties": {"province": "To", "city": "Vigone", "category": "tematici", "name": "Sala dei Ricordi (Vigone)", "address": "Vicolo del Teatro 8"}}, {"geometry": {"type": "Point", "coordinates": [7.15645599, 44.80760574]}, "type": "Feature", "id": null, "properties": {"province": "To", "city": "Villar Pellice", "category": "tradizione", "name": "Ecomuseo Feltrificio Crumi\u00e8re (Villar Pellice)", "address": "Piazza Jervis 1"}}, {"geometry": {"type": "Point", "coordinates": [7.24099493, 44.92648697]}, "type": "Feature", "id": null, "properties": {"province": "To", "city": "Villar Perosa", "category": "scienza e tecnica", "name": "Museo della Storia della Meccanica e del Cuscinetto (Villar Perosa)", "address": "Via Nazionale 14"}}, {"geometry": {"type": "Point", "coordinates": [7.67959642, 45.04977798]}, "type": "Feature", "id": null, "properties": {"province": "To", "city": "Torino", "category": "tematici", "name": "Museo della Frutta (Torino)", "address": "Via P. Giuria 15"}}, {"geometry": {"type": "Point", "coordinates": [7.71603251, 44.84934616]}, "type": "Feature", "id": null, "properties": {"province": "To", "city": "Carmagnola", "category": "scienza e tecnica", "name": "Museo Civico di Storia Naturale (Carmagnola)", "address": "Via San Francesco di Sales 188"}}, {"geometry": {"type": "Point", "coordinates": [7.7209692, 44.84675217]}, "type": "Feature", "id": null, "properties": {"province": "To", "city": "Carmagnola", "category": "scienza e tecnica", "name": "Museo Tipografico \"Rondani\" (Carmagnola)", "address": "Via Santorre di Santarosa 12"}}, {"geometry": {"type": "Point", "coordinates": [7.38931417, 45.31332779]}, "type": "Feature", "id": null, "properties": {"province": "To", "city": "Ceres", "category": "tradizione", "name": "Museo delle Genti delle Valli di Lanzo (Ceres)", "address": "Piazza Municipio 12"}}, {"geometry": {"type": "Point", "coordinates": [6.79627419, 44.98124313]}, "type": "Feature", "id": null, "properties": {"province": "To", "city": "Cesana Torinese", "category": "tradizione", "name": "Museo Etnografico di Fenils (Cesana Torinese)", "address": "Piazza del Forno - Frazione di Fenils "}}, {"geometry": {"type": "Point", "coordinates": [7.90368938, 45.49663925]}, "type": "Feature", "id": null, "properties": {"province": "To", "city": "Chiaverano", "category": "scienza e tecnica", "name": "La Botega del Fr\u00e8r (Chiaverano)", "address": "Via Ivrea 3"}}, {"geometry": {"type": "Point", "coordinates": [7.80455351, 45.00761414]}, "type": "Feature", "id": null, "properties": {"province": "To", "city": "Chieri", "category": "scienza e tecnica", "name": "Museo di Storia Naturale (Chieri)", "address": "Strada provinciale Pecetto 24"}}, {"geometry": {"type": "Point", "coordinates": [6.98154068, 45.11923218]}, "type": "Feature", "id": null, "properties": {"province": "To", "city": "Chiomonte", "category": "storia e archeologia", "name": "Museo Archeologico Chiomonte La Maddalena (Chiomonte)", "address": "Via Avan\u00e0 \u0096 Localit\u00e0 La Maddalena "}}, {"geometry": {"type": "Point", "coordinates": [6.97952938, 45.11798096]}, "type": "Feature", "id": null, "properties": {"province": "To", "city": "Chiomonte", "category": "arte moderna e contemporanea", "name": "Pinacoteca \"Giuseppe Augusto Levis\" (Chiomonte)", "address": "Via Vittorio Emanuele 75"}}, {"geometry": {"type": "Point", "coordinates": [7.29546404, 45.05233383]}, "type": "Feature", "id": null, "properties": {"province": "To", "city": "Coazze", "category": "ecomusei", "name": "Ecomuseo dell'Alta Val Sangone (Coazze)", "address": "Viale Italia 1"}}, {"geometry": {"type": "Point", "coordinates": [7.65164948, 45.3925972]}, "type": "Feature", "id": null, "properties": {"province": "To", "city": "Cuorgn\u00e8", "category": "storia e archeologia", "name": "Museo Archeologico dell'Alto Canavese (Cuorgn\u00e8)", "address": "Via Ivrea 100"}}, {"geometry": {"type": "Point", "coordinates": [7.43795061, 45.25001526]}, "type": "Feature", "id": null, "properties": {"province": "To", "city": "Germagnano", "category": "tradizione", "name": "Museo degli Oggetti di Uso Quotidiano (Germagnano)", "address": "Localit\u00e0 Molar \u0096 Frazione Castagnole "}}, {"geometry": {"type": "Point", "coordinates": [7.63909245, 44.84276581]}, "type": "Feature", "id": null, "properties": {"province": "To", "city": "Lombriasco", "category": "scienza e tecnica", "name": "Museo Salesiano di Scienze (Lombriasco)", "address": "Via San Giovanni Bosco 7"}}, {"geometry": {"type": "Point", "coordinates": [7.03222895, 44.96491623]}, "type": "Feature", "id": null, "properties": {"province": "To", "city": "Massello", "category": "storia e archeologia", "name": "Museo della Balsiglia (Massello)", "address": "Localit\u00e0 Balsiglia "}}, {"geometry": {"type": "Point", "coordinates": [6.98426867, 45.20327759]}, "type": "Feature", "id": null, "properties": {"province": "To", "city": "Moncenisio", "category": "ecomusei", "name": "Ecomuseo Le Terre di confine (Moncenisio)", "address": "Via Trento - Localit\u00e0 Ferrera 9"}}, {"geometry": {"type": "Point", "coordinates": [7.86029291, 45.53604126]}, "type": "Feature", "id": null, "properties": {"province": "To", "city": "Nomaglio", "category": "tematici", "name": "Ecomuseo della castagna (Nomaglio)", "address": "Via Del Mulino 28"}}, {"geometry": {"type": "Point", "coordinates": [7.01473093, 45.19031143]}, "type": "Feature", "id": null, "properties": {"province": "To", "city": "Novalesa", "category": "arte sacra", "name": "Museo di Arte Religiosa Alpina (Novalesa)", "address": "Via Maestra 19"}}, {"geometry": {"type": "Point", "coordinates": [7.85398149, 45.43658447]}, "type": "Feature", "id": null, "properties": {"province": "To", "city": "Pavone Canavese", "category": "tematici", "name": "Fondazione \"Alfredo D'Andrade\" - Museo - Centro Studi (Pavone Canavese)", "address": "Via Giuseppe Quilico 1"}}, {"geometry": {"type": "Point", "coordinates": [7.22506428, 44.94437027]}, "type": "Feature", "id": null, "properties": {"province": "To", "city": "Pinasca", "category": "tradizione", "name": "\u0093Abitare in Valle\u0094 Centro di documentazione del mobile e della cultura valligiana (Pinasca)", "address": "Corso Rocco Galliano 2"}}, {"geometry": {"type": "Point", "coordinates": [7.33546638, 44.8858757]}, "type": "Feature", "id": null, "properties": {"province": "To", "city": "Pinerolo", "category": "storia e archeologia", "name": "CeSMAP - Centro Studi e Museo d'Arte Preistorica (Pinerolo)", "address": "Via Giolitti 1"}}, {"geometry": {"type": "Point", "coordinates": [7.33052683, 44.8860321]}, "type": "Feature", "id": null, "properties": {"province": "To", "city": "Pinerolo", "category": "storia e archeologia", "name": "Museo Storico del Mutuo Soccorso (Pinerolo)", "address": "Via Silvio Pellico 19"}}, {"geometry": {"type": "Point", "coordinates": [7.76966429, 45.04456329]}, "type": "Feature", "id": null, "properties": {"province": "To", "city": "Pino Torinese", "category": "scienza e tecnica", "name": "Osservatorio Astronomico di Pino Torinese", "address": "Via dell\u1e40Osservatorio 20"}}, {"geometry": {"type": "Point", "coordinates": [7.42640734, 44.91986847]}, "type": "Feature", "id": null, "properties": {"province": "To", "city": "Piscina", "category": "arte moderna e contemporanea", "name": "Museo \"Piscina Arte Aperta\" (Piscina)", "address": " "}}, {"geometry": {"type": "Point", "coordinates": [7.42565203, 44.91953278]}, "type": "Feature", "id": null, "properties": {"province": "To", "city": "Piscina", "category": "tradizione", "name": "Museo Etnografico \"L Rubat\" (Piscina)", "address": "Via Umberto I 64"}}, {"geometry": {"type": "Point", "coordinates": [8.00365543, 45.44839096]}, "type": "Feature", "id": null, "properties": {"province": "To", "city": "Piverone", "category": "tradizione", "name": "Museo Etnografico \"La Steiva\" (Piverone)", "address": "Via del Torrione 1"}}, {"geometry": {"type": "Point", "coordinates": [7.59364557, 45.42142487]}, "type": "Feature", "id": null, "properties": {"province": "To", "city": "Pont-Canavese", "category": "tradizione", "name": "Museo Etnografico di Antichi Mestieri (Pont Canavese)", "address": "Via Roscio 2"}}, {"geometry": {"type": "Point", "coordinates": [7.58307171, 45.43421555]}, "type": "Feature", "id": null, "properties": {"province": "To", "city": "Pont-Canavese", "category": "tematici", "name": "Museo del Territorio delle Valli Orco e Soana (Pont Canavese)", "address": "Via Torre Ferranda "}}, {"geometry": {"type": "Point", "coordinates": [6.93641615, 45.01076508]}, "type": "Feature", "id": null, "properties": {"province": "To", "city": "Pragelato", "category": "tradizione", "name": "Museo del Costume e delle Tradizioni delle Genti Alpine (Pragelato)", "address": "Via San Giovanni - Borgata Rivet "}}, {"geometry": {"type": "Point", "coordinates": [6.96079063, 45.02952957]}, "type": "Feature", "id": null, "properties": {"province": "To", "city": "Pragelato", "category": "tematici", "name": "Museo dell'Osservatorio di Apicoltura \"Don Giacomo Angeleri\" (Pragelato)", "address": "Localit\u00e0 Souch\u00e9res - Basses "}}, {"geometry": {"type": "Point", "coordinates": [7.05216885, 44.91917801]}, "type": "Feature", "id": null, "properties": {"province": "To", "city": "Prali", "category": "tematici", "name": "Museo Valdese di Rodoretto (Prali)", "address": "Villa di Rodoretto "}}, {"geometry": {"type": "Point", "coordinates": [7.04874372, 44.88903809]}, "type": "Feature", "id": null, "properties": {"province": "To", "city": "Prali", "category": "tematici", "name": "Museo di Prali e della Val Germanasca (Prali)", "address": "Ex Tempio Valdese "}}, {"geometry": {"type": "Point", "coordinates": [7.19164944, 44.90917969]}, "type": "Feature", "id": null, "properties": {"province": "To", "city": "Pramollo", "category": "tematici", "name": "Museo Scuola Beckwith (Pramollo)", "address": "Localit\u00e0 Pellenchi "}}, {"geometry": {"type": "Point", "coordinates": [7.27015066, 44.86551285]}, "type": "Feature", "id": null, "properties": {"province": "To", "city": "Prarostino", "category": "tematici", "name": "Museo della Viticoltura (Prarostino)", "address": "Piazza della Libert\u00e0 20"}}, {"geometry": {"type": "Point", "coordinates": [7.2001667, 44.79312897]}, "type": "Feature", "id": null, "properties": {"province": "To", "city": "Ror\u00e0", "category": "tematici", "name": "Museo Valdese (Ror\u00e0)", "address": "Via Duca Amedeo II 4"}}, {"geometry": {"type": "Point", "coordinates": [7.37647104, 45.16923523]}, "type": "Feature", "id": null, "properties": {"province": "To", "city": "Rubiana", "category": "tradizione", "name": "Museo Parrocchiale (Rubiana)", "address": "Frazione Mompellato "}}, {"geometry": {"type": "Point", "coordinates": [6.88417864, 45.07324982]}, "type": "Feature", "id": null, "properties": {"province": "To", "city": "Salbertrand", "category": "ecomusei", "name": "Ecomuseo Colombano Romean (Salbertrand)", "address": "Via Fransu\u00e0 Fontan 1"}}, {"geometry": {"type": "Point", "coordinates": [7.24050713, 44.89825439]}, "type": "Feature", "id": null, "properties": {"province": "To", "city": "San Germano Chisone", "category": "tematici", "name": "Museo Valdese (San Germano Chisone)", "address": "Via Scuole 3"}}, {"geometry": {"type": "Point", "coordinates": [7.79620314, 45.33581543]}, "type": "Feature", "id": null, "properties": {"province": "To", "city": "San Giorgio Canavese", "category": "tradizione", "name": "Museo Etnografico \"Nossi Rais\" (San Giorgio Canavese)", "address": "Via Campeggio 8"}}, {"geometry": {"type": "Point", "coordinates": [7.94410849, 44.61063385]}, "type": "Feature", "id": null, "properties": {"province": "Cn", "city": "Barolo", "category": "tematici", "name": "Museo dei Cavatappi (Barolo)", "address": "Piazza Castello 4"}}, {"geometry": {"type": "Point", "coordinates": [8.38995361, 44.99470901]}, "type": "Feature", "id": null, "properties": {"province": "Al", "city": "Altavilla Monferrato", "category": "tematici", "name": "Museo dei Tramways a vapore ed elettrici (Altavilla Monferrato)", "address": "Localit\u00e0 Cittadella "}}, {"geometry": {"type": "Point", "coordinates": [8.44972801, 45.13579559]}, "type": "Feature", "id": null, "properties": {"province": "Al", "city": "Casale Monferrato", "category": "tradizione", "name": "Museo di Arte e Storia Antica Ebraica (Casale Monferrato)", "address": "Vicolo Salomone Olper 44"}}, {"geometry": {"type": "Point", "coordinates": [9.09562016, 44.67470932]}, "type": "Feature", "id": null, "properties": {"province": "Al", "city": "Carrega Ligure", "category": "tradizione", "name": "Museo della Civilt\u00e0 Contadina \"A Carbuninna\" (Carrega Ligure)", "address": "Piazza della Chiesa "}}, {"geometry": {"type": "Point", "coordinates": [8.64749622, 44.63689804]}, "type": "Feature", "id": null, "properties": {"province": "Al", "city": "Ovada", "category": "scienza e tecnica", "name": "Museo Paleontologico Giulio Maini (Ovada)", "address": "Via Sant'Antonio 17"}}, {"geometry": {"type": "Point", "coordinates": [8.19864082, 44.89906693]}, "type": "Feature", "id": null, "properties": {"province": "At", "city": "Asti", "category": "arte sacra", "name": "Area Espositiva \"San Giuseppe Marello\" (Asti)", "address": "Corso Vittorio Alfieri 384"}}, {"geometry": {"type": "Point", "coordinates": [8.28350735, 44.72334671]}, "type": "Feature", "id": null, "properties": {"province": "At", "city": "Canelli", "category": "tematici", "name": "Cantine Storiche della ditta \"Giuseppe Contratto\" S.p.A. (Canelli)", "address": "Via G.B. Giuliani 56"}}, {"geometry": {"type": "Point", "coordinates": [8.28849506, 44.71513748]}, "type": "Feature", "id": null, "properties": {"province": "At", "city": "Canelli", "category": "tematici", "name": "Museo \"Gancia\" (Canelli)", "address": "Corso Libert\u00e0 66"}}, {"geometry": {"type": "Point", "coordinates": [8.2093153, 44.98236847]}, "type": "Feature", "id": null, "properties": {"province": "At", "city": "Castell'Alfero", "category": "tradizione", "name": "Museo 'L Ciar (Castell'Alfero)", "address": "Piazza Castello 2"}}, {"geometry": {"type": "Point", "coordinates": [7.98495531, 45.01184464]}, "type": "Feature", "id": null, "properties": {"province": "At", "city": "Castelnuovo Don Bosco", "category": "tradizione", "name": "Museo della Vita Contadina dell'800 (Castelnuovo Don Bosco)", "address": "Frazione Morialdo 30"}}, {"geometry": {"type": "Point", "coordinates": [8.45053101, 44.75081253]}, "type": "Feature", "id": null, "properties": {"province": "At", "city": "Quaranti", "category": "tradizione", "name": "Museo di Civilt\u00e0 Rurale \"Terre Del Brachetto d'Acqui\" (Quaranti)", "address": "Via Don Reggio 13"}}, {"geometry": {"type": "Point", "coordinates": [8.28537083, 44.78882599]}, "type": "Feature", "id": null, "properties": {"province": "At", "city": "Castelnuovo Calcea", "category": "tradizione", "name": "Il Nido della Memoria (Castelnuovo Calcea)", "address": "Piazza Castello "}}, {"geometry": {"type": "Point", "coordinates": [8.29636669, 44.81564713]}, "type": "Feature", "id": null, "properties": {"province": "At", "city": "Mombercelli", "category": "arte moderna e contemporanea", "name": "Museo Civico d'Arte Moderna e Contemporanea (Mombercelli)", "address": "Via Brofferio 21"}}, {"geometry": {"type": "Point", "coordinates": [8.05185986, 45.57102585]}, "type": "Feature", "id": null, "properties": {"province": "Bi", "city": "Biella", "category": "tematici", "name": "Museo della Birra (Biella)", "address": "Via Ramella Germanin 4"}}, {"geometry": {"type": "Point", "coordinates": [8.04940128, 45.56250381]}, "type": "Feature", "id": null, "properties": {"province": "Bi", "city": "Biella", "category": "storia e archeologia", "name": "Museo del Territorio Biellese (Biella)", "address": "Via Quintino Sella "}}, {"geometry": {"type": "Point", "coordinates": [8.45136547, 45.13508987]}, "type": "Feature", "id": null, "properties": {"province": "Al", "city": "Casale Monferrato", "category": "storia e archeologia", "name": "Museo Civico e Gipsoteca Bistolfi (Casale Monferrato)", "address": "Via Cavour 5"}}, {"geometry": {"type": "Point", "coordinates": [7.98632956, 45.05747604]}, "type": "Feature", "id": null, "properties": {"province": "At", "city": "Pino d'Asti", "category": "tematici", "name": "Collezione Roberto Bellocchio di oggetti da falegname ed ebanista (Pino d'Asti)", "address": " "}}, {"geometry": {"type": "Point", "coordinates": [7.98750162, 45.61225891]}, "type": "Feature", "id": null, "properties": {"province": "Bi", "city": "Biella", "category": "arte antica", "name": "Museo del Tesoro di Oropa (Biella)", "address": "Via Santuario di Oropa, 480 (Localit\u00e0 Oropa) "}}, {"geometry": {"type": "Point", "coordinates": [7.98166752, 45.5580101]}, "type": "Feature", "id": null, "properties": {"province": "Bi", "city": "Graglia", "category": "scienza e tecnica", "name": "Museo di Scienze Naturali (Graglia)", "address": "Piazza Crida 6"}}, {"geometry": {"type": "Point", "coordinates": [7.97675562, 45.67587662]}, "type": "Feature", "id": null, "properties": {"province": "Bi", "city": "Rosazza", "category": "tradizione", "name": "Casa Museo della Storia del Costume e delle Tradizioni - Alta Valle Cervo (Rosazza)", "address": "Via Pietro Micca 25"}}, {"geometry": {"type": "Point", "coordinates": [7.83390522, 44.54608917]}, "type": "Feature", "id": null, "properties": {"province": "Cn", "city": "Bene Vagienna", "category": "storia e archeologia", "name": "Museo Civico Archeologico (Bene Vagienna)", "address": "Via Roma 125"}}, {"geometry": {"type": "Point", "coordinates": [7.97109222, 44.10678864]}, "type": "Feature", "id": null, "properties": {"province": "Cn", "city": "Caprauna", "category": "tradizione", "name": "Museo Etnografico (Caprauna)", "address": "Piazza S. Antonino 16"}}, {"geometry": {"type": "Point", "coordinates": [7.07347584, 44.58860779]}, "type": "Feature", "id": null, "properties": {"province": "Cn", "city": "Casteldelfino", "category": "tradizione", "name": "Museo Etnografico \"Ier a la Vilo\" (Casteldelfino)", "address": "Localit\u00e0 Casermette "}}, {"geometry": {"type": "Point", "coordinates": [7.60057878, 44.49473572]}, "type": "Feature", "id": null, "properties": {"province": "Cn", "city": "Centallo", "category": "arte sacra", "name": "Casa - Museo Pellegrino (Centallo)", "address": "Frazione Roata Chiusani - Piazza Cardinal Pellegrino "}}, {"geometry": {"type": "Point", "coordinates": [7.2944541, 44.31482315]}, "type": "Feature", "id": null, "properties": {"province": "Cn", "city": "Demonte", "category": "tematici", "name": "Lou Feracaval \u0096 La Bottega del Maniscalco (Demonte)", "address": "Via Parrocchia "}}, {"geometry": {"type": "Point", "coordinates": [7.76783419, 44.27705002]}, "type": "Feature", "id": null, "properties": {"province": "Cn", "city": "Frabosa Sottana", "category": "tradizione", "name": "Museo della Montagna e della sua Gente (Frabosa Sottana)", "address": "Frazione Miroglio 12083"}}, {"geometry": {"type": "Point", "coordinates": [7.73085737, 44.66042328]}, "type": "Feature", "id": null, "properties": {"province": "Cn", "city": "Marene", "category": "arte sacra", "name": "Museo dei Ricordi della  Serva di Dio Madre Maria degli Angeli (Marene)", "address": "Via Suor Maria degli Angeli 2"}}, {"geometry": {"type": "Point", "coordinates": [7.91222954, 44.14828491]}, "type": "Feature", "id": null, "properties": {"province": "Cn", "city": "Ormea", "category": "tradizione", "name": "Museo Etnografico Alta Val Tanaro (Ormea)", "address": "Via Madonna degli Angeli "}}, {"geometry": {"type": "Point", "coordinates": [7.44527292, 44.55971527]}, "type": "Feature", "id": null, "properties": {"province": "Cn", "city": "Piasco", "category": "tematici", "name": "Museo dell'Arpa Victor Salvi (Piasco)", "address": "Via Rossana 7"}}, {"geometry": {"type": "Point", "coordinates": [7.89206648, 44.51612091]}, "type": "Feature", "id": null, "properties": {"province": "Cn", "city": "Piozzo", "category": "arte sacra", "name": "Museo della Comunit\u00e0 Parrocchiale (Piozzo)", "address": "Piazza Doglis 3"}}, {"geometry": {"type": "Point", "coordinates": [7.05081224, 44.61498642]}, "type": "Feature", "id": null, "properties": {"province": "Cn", "city": "Pontechianale", "category": "tematici", "name": "Museo del Mobile dell'Alta Valle Varaita (Pontechianale)", "address": "Frazione Castello "}}, {"geometry": {"type": "Point", "coordinates": [7.38911867, 44.65497589]}, "type": "Feature", "id": null, "properties": {"province": "Cn", "city": "Revello", "category": "scienza e tecnica", "name": "Museo naturalistico del Fiume Po (Revello)", "address": "Piazza Denina 5"}}, {"geometry": {"type": "Point", "coordinates": [7.32220364, 44.64814758]}, "type": "Feature", "id": null, "properties": {"province": "Cn", "city": "Sanfront", "category": "tradizione", "name": "Balma Boves (Sanfront)", "address": "Frazione Rocchetta - Localit\u00e0 Balma Boves "}}, {"geometry": {"type": "Point", "coordinates": [7.12579489, 44.50621796]}, "type": "Feature", "id": null, "properties": {"province": "Cn", "city": "Stroppo", "category": "tradizione", "name": "Museo della Scuola \"L'Escola de Mountanho\" (Stroppo)", "address": "Frazione Paschero 12"}}, {"geometry": {"type": "Point", "coordinates": [7.52950048, 44.73610306]}, "type": "Feature", "id": null, "properties": {"province": "Cn", "city": "Torre San Giorgio", "category": "arte moderna e contemporanea", "name": "Pinacoteca Civica \"Carlo Sismonda\" (Torre San Giorgio)", "address": "Via Maestra A. Sarti 27"}}, {"geometry": {"type": "Point", "coordinates": [7.42877483, 44.2947998]}, "type": "Feature", "id": null, "properties": {"province": "Cn", "city": "Valdieri", "category": "tradizione", "name": "Museo Etnografico Antichi Mestieri (Valdieri)", "address": "Frazione Andonno "}}, {"geometry": {"type": "Point", "coordinates": [7.33101559, 44.31521606]}, "type": "Feature", "id": null, "properties": {"province": "Cn", "city": "Valloriate", "category": "tematici", "name": "Museo del Castagno (Valloriate)", "address": "Frazione Airale 24"}}, {"geometry": {"type": "Point", "coordinates": [8.42948437, 45.78577805]}, "type": "Feature", "id": null, "properties": {"province": "No", "city": "Ameno", "category": "arte moderna e contemporanea", "name": "Museo della Fondazione Antonio e Carmela Calderara (Ameno)", "address": "Via Bardelli,9 - Localit\u00e0 Vacciago "}}, {"geometry": {"type": "Point", "coordinates": [8.46922874, 45.43759918]}, "type": "Feature", "id": null, "properties": {"province": "No", "city": "Casalbeltrame", "category": "tradizione", "name": "Museo Etnografico dell'Attrezzo Agricolo L'civel (Casalbeltrame)", "address": "Via Cavour 4"}}, {"geometry": {"type": "Point", "coordinates": [7.21083164, 44.81894684]}, "type": "Feature", "id": null, "properties": {"province": "To", "city": "Torre Pellice", "category": "tradizione", "name": "Museo del Mulino (Torre Pellice)", "address": "Via del Molino "}}, {"geometry": {"type": "Point", "coordinates": [7.75359821, 45.51094437]}, "type": "Feature", "id": null, "properties": {"province": "To", "city": "Traversella", "category": "scienza e tecnica", "name": "Museo mineralogico e delle attrezzature della miniera (Traversella)", "address": "Loc. Miniere "}}, {"geometry": {"type": "Point", "coordinates": [7.28938103, 45.10155487]}, "type": "Feature", "id": null, "properties": {"province": "To", "city": "Vaie", "category": "storia e archeologia", "name": "Museo Laboratorio della Preistoria (Vaie)", "address": "Via San Pancrazio 4"}}, {"geometry": {"type": "Point", "coordinates": [7.17324018, 44.8692894]}, "type": "Feature", "id": null, "properties": {"province": "To", "city": "Angrogna", "category": "tematici", "name": "Casa Museo - Coulege Dei Barba (Angrogna)", "address": "Localit\u00e0 Pradeltorno "}}, {"geometry": {"type": "Point", "coordinates": [7.21387482, 44.85239029]}, "type": "Feature", "id": null, "properties": {"province": "To", "city": "Angrogna", "category": "tradizione", "name": "Museo delle donne valdesi (Angrogna)", "address": "Loc. Serre "}}, {"geometry": {"type": "Point", "coordinates": [6.69751883, 45.08055496]}, "type": "Feature", "id": null, "properties": {"province": "To", "city": "Bardonecchia", "category": "tradizione", "name": "Museo Civico Etnografico (Bardonecchia)", "address": "Via Des Genejs 5"}}, {"geometry": {"type": "Point", "coordinates": [7.75482941, 44.86753845]}, "type": "Feature", "id": null, "properties": {"province": "To", "city": "Carmagnola", "category": "tematici", "name": "Ecomuseo della Canapa (Carmagnola)", "address": "Via Crissolo - Frazione San Bernardo 20"}}, {"geometry": {"type": "Point", "coordinates": [7.2917738, 45.13651276]}, "type": "Feature", "id": null, "properties": {"province": "To", "city": "Condove", "category": "tradizione", "name": "Museo Etnografico \"Antica Gente\" (Condove)", "address": "Frazione Mocchie - Via Roma 1"}}, {"geometry": {"type": "Point", "coordinates": [7.08516884, 45.04571533]}, "type": "Feature", "id": null, "properties": {"province": "To", "city": "Fenestrelle", "category": "scienza e tecnica", "name": "Museo del Parco Naturale Orsiera Rocciavr\u00e8 (Fenestrelle)", "address": "Localit\u00e0 Pra Catinat "}}, {"geometry": {"type": "Point", "coordinates": [7.01487207, 45.14180374]}, "type": "Feature", "id": null, "properties": {"province": "To", "city": "Giaglione", "category": "arte sacra", "name": "Museo di Arte Religiosa Alpina (Giaglione)", "address": "Via S. Andrea 1"}}, {"geometry": {"type": "Point", "coordinates": [7.47591257, 45.2727356]}, "type": "Feature", "id": null, "properties": {"province": "To", "city": "Lanzo Torinese", "category": "scienza e tecnica", "name": "Museo Mineralogico (Lanzo Torinese)", "address": "Via San Giovanni Bosco 1"}}, {"geometry": {"type": "Point", "coordinates": [7.718328, 45.18490601]}, "type": "Feature", "id": null, "properties": {"province": "To", "city": "Lein\u00ec", "category": "tematici", "name": "Museo della Fisarmonica G. & G. Verde (Lein\u00ec)", "address": "Via Volpiano 8"}}, {"geometry": {"type": "Point", "coordinates": [7.24420977, 44.80874252]}, "type": "Feature", "id": null, "properties": {"province": "To", "city": "Luserna San Giovanni", "category": "tematici", "name": "Museo del Gioco e del Giocattolo (Luserna San Giovanni)", "address": "Via Diaz 19"}}, {"geometry": {"type": "Point", "coordinates": [7.31552744, 45.45344543]}, "type": "Feature", "id": null, "properties": {"province": "To", "city": "Noasca", "category": "scienza e tecnica", "name": "Le forme del paesaggio - Centro visitatori del Parco Nazionale del Gran Paradiso (Noasca)", "address": "Via Umberto I "}}, {"geometry": {"type": "Point", "coordinates": [7.01473093, 45.19031143]}, "type": "Feature", "id": null, "properties": {"province": "To", "city": "Novalesa", "category": "tradizione", "name": "Museo di Vita Montana della Val Cenischia (Novalesa)", "address": "Via Maestra 46"}}, {"geometry": {"type": "Point", "coordinates": [7.33124208, 44.88665771]}, "type": "Feature", "id": null, "properties": {"province": "To", "city": "Pinerolo", "category": "arte sacra", "name": "Museo Diocesano (Pinerolo)", "address": "Via del Pino 49/57"}}, {"geometry": {"type": "Point", "coordinates": [7.33553934, 44.88587952]}, "type": "Feature", "id": null, "properties": {"province": "To", "city": "Pinerolo", "category": "tematici", "name": "Museo Storico dell'Arma di Cavalleria (Pinerolo)", "address": "Viale Giolitti 5"}}, {"geometry": {"type": "Point", "coordinates": [7.18159485, 44.95628357]}, "type": "Feature", "id": null, "properties": {"province": "To", "city": "Pomaretto", "category": "tradizione", "name": "Esposizione Permanente \"Gli Antichi Mestieri\" (Pomaretto)", "address": "Via Balziglia 103"}}, {"geometry": {"type": "Point", "coordinates": [7.59389353, 45.42264175]}, "type": "Feature", "id": null, "properties": {"province": "To", "city": "Pont-Canavese", "category": "tematici", "name": "Museo Sandretto di Storia delle Materie Plastiche (Pont Canavese)", "address": "Via Guglielmo Marconi 30"}}, {"geometry": {"type": "Point", "coordinates": [6.94532681, 45.01810837]}, "type": "Feature", "id": null, "properties": {"province": "To", "city": "Pragelato", "category": "scienza e tecnica", "name": "Museo Centro Visitatori del Parco Naturale della Val Troncea (Pragelato)", "address": "Via della Pineta - Frazione Ru\u00e0 "}}, {"geometry": {"type": "Point", "coordinates": [7.54732656, 45.49968719]}, "type": "Feature", "id": null, "properties": {"province": "To", "city": "Ronco Canavese", "category": "tematici", "name": "Ecomuseo del Rame (Ronco Canavese)", "address": "Frazione Castellaro "}}, {"geometry": {"type": "Point", "coordinates": [7.19830465, 44.79230118]}, "type": "Feature", "id": null, "properties": {"province": "To", "city": "Ror\u00e0", "category": "tematici", "name": "Ecomuseo della Pietra (Ror\u00e0)", "address": "Via Duca Amedeo 11"}}, {"geometry": {"type": "Point", "coordinates": [7.24050713, 44.89825439]}, "type": "Feature", "id": null, "properties": {"province": "To", "city": "San Germano Chisone", "category": "tematici", "name": "Museo Ski Rochon (San Germano Chisone)", "address": "Via Scuole 9"}}, {"geometry": {"type": "Point", "coordinates": [7.77355003, 44.94949722]}, "type": "Feature", "id": null, "properties": {"province": "To", "city": "Santena", "category": "tematici", "name": "Museo Cavouriano (Santena)", "address": "Piazza Visconti Venosta 2"}}, {"geometry": {"type": "Point", "coordinates": [6.85962391, 45.02747345]}, "type": "Feature", "id": null, "properties": {"province": "To", "city": "Sauze d'Oulx", "category": "scienza e tecnica", "name": "Muse'O' (Sauze D'Oulx)", "address": "Strada per Frazione Tachier "}}, {"geometry": {"type": "Point", "coordinates": [7.66275549, 45.07055664]}, "type": "Feature", "id": null, "properties": {"province": "To", "city": "Torino", "category": "tematici", "name": "Archivio Storico Telecom Italia (Torino)", "address": "Via Cavalli 6"}}, {"geometry": {"type": "Point", "coordinates": [7.64292955, 45.06191635]}, "type": "Feature", "id": null, "properties": {"province": "To", "city": "Torino", "category": "arte moderna e contemporanea", "name": "Fondazione Merz (Torino)", "address": "Via Limone 24"}}, {"geometry": {"type": "Point", "coordinates": [7.67867327, 45.07463837]}, "type": "Feature", "id": null, "properties": {"province": "To", "city": "Torino", "category": "tematici", "name": "Fondazione Tancredi di Barolo - Museo della Scuola (Torino)", "address": "Via delle Orfane 7"}}, {"geometry": {"type": "Point", "coordinates": [7.68697309, 45.07061005]}, "type": "Feature", "id": null, "properties": {"province": "To", "city": "Torino", "category": "tematici", "name": "Itinerario Storico - Teatro Regio (Torino)", "address": "Piazza Castello 215"}}, {"geometry": {"type": "Point", "coordinates": [7.65201759, 45.08134079]}, "type": "Feature", "id": null, "properties": {"province": "To", "city": "Torino", "category": "arte moderna e contemporanea", "name": "MAU - Museo d'Arte Urbana (Torino)", "address": "Via Musin\u00e8 19"}}, {"geometry": {"type": "Point", "coordinates": [7.68454552, 45.06786728]}, "type": "Feature", "id": null, "properties": {"province": "To", "city": "Torino", "category": "arte moderna e contemporanea", "name": "MIAAO - Museo Internazionale delle Arti Applicate Oggi (Torino)", "address": "Via Maria Vittoria 5"}}, {"geometry": {"type": "Point", "coordinates": [7.6721921, 45.07361221]}, "type": "Feature", "id": null, "properties": {"province": "To", "city": "Torino", "category": "arte sacra", "name": "Museo Murialdo (Torino)", "address": "Corso Palestro 14"}}, {"geometry": {"type": "Point", "coordinates": [7.68870449, 45.06469345]}, "type": "Feature", "id": null, "properties": {"province": "To", "city": "Torino", "category": "scienza e tecnica", "name": "Museo Regionale di Scienze Naturali (Torino)", "address": "Via Giolitti 36"}}, {"geometry": {"type": "Point", "coordinates": [7.49414825, 44.8430748]}, "type": "Feature", "id": null, "properties": {"province": "To", "city": "Vigone", "category": "arte moderna e contemporanea", "name": "Pinacoteca Comunale - Donazione Michele Baretta (Vigone)", "address": "Via Umberto I 17"}}, {"geometry": {"type": "Point", "coordinates": [7.50966692, 44.78585052]}, "type": "Feature", "id": null, "properties": {"province": "To", "city": "Villafranca Piemonte", "category": "arte moderna e contemporanea", "name": "Museo Pinacoteca \"Margherita\" del pittore Mattia Fassi (Villafranca Piemonte)", "address": "Viale Gramsci 2"}}, {"geometry": {"type": "Point", "coordinates": [8.32233429, 46.21578217]}, "type": "Feature", "id": null, "properties": {"province": "Vb", "city": "Crodo", "category": "scienza e tecnica", "name": "Museo Mineralogico Ossolano Aldo Roggiani e Angelo Bianchi (Crodo)", "address": "Via Bagni 18"}}, {"geometry": {"type": "Point", "coordinates": [8.32233429, 46.21578217]}, "type": "Feature", "id": null, "properties": {"province": "Vb", "city": "Crodo", "category": "scienza e tecnica", "name": "Museo Nazionale delle Acque Minerali Carlo Brazzarotto (Crodo)", "address": "Via Bagni 18"}}, {"geometry": {"type": "Point", "coordinates": [7.96726227, 45.96901703]}, "type": "Feature", "id": null, "properties": {"province": "Vb", "city": "Macugnaga", "category": "tradizione", "name": "Museo della Montagna e del Contrabbando (Macugnaga)", "address": "Via Prati - Frazione Staffa 6"}}, {"geometry": {"type": "Point", "coordinates": [8.34221268, 46.27288437]}, "type": "Feature", "id": null, "properties": {"province": "Vb", "city": "Premia", "category": "scienza e tecnica", "name": "Museo Mineralogico \u0093Don Giovanni Bonomo\u0094 (Premia)", "address": "Piazza Municipio "}}, {"geometry": {"type": "Point", "coordinates": [8.46371365, 46.1346283]}, "type": "Feature", "id": null, "properties": {"province": "Vb", "city": "Santa Maria Maggiore", "category": "arte moderna e contemporanea", "name": "Pinacoteca Rossetti Valentini (Santa Maria Maggiore)", "address": "Via Rossetti Valentini 1"}}, {"geometry": {"type": "Point", "coordinates": [8.53584385, 46.13185883]}, "type": "Feature", "id": null, "properties": {"province": "Vb", "city": "Villette", "category": "tradizione", "name": "Museo dell'Artigianato e della Vita Contadina \u0093Ca' di Feman da la Piaza\u0094 (Villette)", "address": "Via Peretti 9"}}, {"geometry": {"type": "Point", "coordinates": [8.38073635, 45.42720413]}, "type": "Feature", "id": null, "properties": {"province": "Vc", "city": "Albano Vercellese", "category": "scienza e tecnica", "name": "Museo Naturalistico del Parco \"Lame del Sesia\" (Albano Vercellese)", "address": "Via XX Settembre 12"}}, {"geometry": {"type": "Point", "coordinates": [8.25035, 45.70184326]}, "type": "Feature", "id": null, "properties": {"province": "Vc", "city": "Guardabosone", "category": "tradizione", "name": "Museo di Arte e Mestieri (Guardabosone)", "address": "Via Roma 34"}}, {"geometry": {"type": "Point", "coordinates": [8.25035, 45.70184326]}, "type": "Feature", "id": null, "properties": {"province": "Vc", "city": "Guardabosone", "category": "arte sacra", "name": "Museo di Arte Sacra (Guardabosone)", "address": "Via Roma 34"}}, {"geometry": {"type": "Point", "coordinates": [8.08042336, 45.28153992]}, "type": "Feature", "id": null, "properties": {"province": "Vc", "city": "Livorno Ferraris", "category": "tematici", "name": "Museo Sacrario \"Galileo e Adamo Ferraris\" (Livorno Ferraris)", "address": "Piazza Galileo Ferraris 1"}}, {"geometry": {"type": "Point", "coordinates": [8.94380188, 44.73067856]}, "type": "Feature", "id": null, "properties": {"province": "Al", "city": "Borghetto di Borbera", "category": "tematici", "name": "Museo Aziendale Sutter (Borghetto di Borbera)", "address": "Localit\u00e0 Leigozze "}}, {"geometry": {"type": "Point", "coordinates": [8.86827469, 44.89841461]}, "type": "Feature", "id": null, "properties": {"province": "Al", "city": "Tortona", "category": "storia e archeologia", "name": "Museo Civico (Tortona)", "address": "Piazza Aristide Arzano 1"}}, {"geometry": {"type": "Point", "coordinates": [8.19630527, 44.8993187]}, "type": "Feature", "id": null, "properties": {"province": "At", "city": "Asti", "category": "storia e archeologia", "name": "Sito Archeologico della Domus Romana (Asti)", "address": "Via Marrone 30"}}, {"geometry": {"type": "Point", "coordinates": [8.19019604, 44.79202652]}, "type": "Feature", "id": null, "properties": {"province": "At", "city": "Costigliole d'Asti", "category": "storia e archeologia", "name": "Museo dell'Alpino e del Combattente Piemontese (Costigliole d'Asti)", "address": "Strada Ville 11"}}, {"geometry": {"type": "Point", "coordinates": [8.0035162, 45.513134]}, "type": "Feature", "id": null, "properties": {"province": "Bi", "city": "Mongrando", "category": "ecomusei", "name": "La lavorazione del Ferro - Cellula Ecomuseale della Fucina Morino di Mongrando", "address": "Via Martiri della Libert\u00e0 "}}, {"geometry": {"type": "Point", "coordinates": [0.0, 0.0]}, "type": "Feature", "id": null, "properties": {"province": "Bi", "city": "Muzzano", "category": "ecomusei", "name": "Cellula di Bagneri - La Civilt\u00e0 Montanara (Muzzano)", "address": " "}}, {"geometry": {"type": "Point", "coordinates": [0.0, 0.0]}, "type": "Feature", "id": null, "properties": {"province": "Bi", "city": "Netro", "category": "ecomusei", "name": "Cellula Ecomuseale delle Officine di Netro - La lavorazione del ferro", "address": " "}}, {"geometry": {"type": "Point", "coordinates": [0.0, 0.0]}, "type": "Feature", "id": null, "properties": {"province": "Bi", "city": "Sordevolo", "category": "ecomusei", "name": "Cellula della Trappa di Sordevolo - La tradizione costruttiva (Sordevolo)", "address": " "}}, {"geometry": {"type": "Point", "coordinates": [8.02435303, 45.48251343]}, "type": "Feature", "id": null, "properties": {"province": "Bi", "city": "Zubiena", "category": "ecomusei", "name": "Cellula di Vermogno - L'Oro e la Bessa (Zubiena)", "address": "Via Debernardi 50"}}, {"geometry": {"type": "Point", "coordinates": [7.97058296, 44.36844254]}, "type": "Feature", "id": null, "properties": {"province": "Cn", "city": "Mombasiglio", "category": "storia e archeologia", "name": "Museo Bonaparte (Mombasiglio)", "address": "Piazza Vittorio Veneto 1"}}, {"geometry": {"type": "Point", "coordinates": [7.18943977, 44.57919312]}, "type": "Feature", "id": null, "properties": {"province": "Cn", "city": "Sampeyre", "category": "tradizione", "name": "Museo Storico Etnografico (Sampeyre)", "address": "Via Roma 25"}}, {"geometry": {"type": "Point", "coordinates": [6.94532681, 45.01810837]}, "type": "Feature", "id": null, "properties": {"province": "To", "city": "Pragelato", "category": "tematici", "name": "Centro di Documentazione sulla Meridiana (Pragelato)", "address": "Viale Cavalieri di Vittorio Veneto - Frazione Ru\u00e0 "}}, {"geometry": {"type": "Point", "coordinates": [7.65175867, 45.0569725]}, "type": "Feature", "id": null, "properties": {"province": "To", "city": "Torino", "category": "arte moderna e contemporanea", "name": "Fondazione Sandretto Re Rebaudengo (Torino)", "address": "Via Modane 16"}}, {"geometry": {"type": "Point", "coordinates": [7.75979042, 44.42218399]}, "type": "Feature", "id": null, "properties": {"province": "Cn", "city": "Rocca de' Baldi", "category": "tradizione", "name": "Museo Storico Etnografico \"Augusto Doro\" (Rocca De' Baldi)", "address": "Piazza Pio VII "}}, {"geometry": {"type": "Point", "coordinates": [8.27321911, 45.7152977]}, "type": "Feature", "id": null, "properties": {"province": "Vc", "city": "Borgosesia", "category": "tradizione", "name": "Museo Etnografico e del Folklore Valsesiano (Borgosesia)", "address": "Via delle Manifatture 10"}}, {"geometry": {"type": "Point", "coordinates": [8.27796078, 45.71624374]}, "type": "Feature", "id": null, "properties": {"province": "Vc", "city": "Borgosesia", "category": "storia e archeologia", "name": "Museo di Paleontologia e Archeologia e Museo Etnografico del Folklore Valsesiano (Borgosesia)", "address": "Via Combattenti "}}, {"geometry": {"type": "Point", "coordinates": [8.0515461, 45.9071312]}, "type": "Feature", "id": null, "properties": {"province": "Vc", "city": "Carcoforo", "category": "scienza e tecnica", "name": "Museo Naturalistico (Carcoforo)", "address": "Fraz. Tetto Minocco "}}, {"geometry": {"type": "Point", "coordinates": [8.2313118, 45.71430206]}, "type": "Feature", "id": null, "properties": {"province": "Vc", "city": "Postua", "category": "arte sacra", "name": "Museo di Arte Sacra (Postua)", "address": "Via Cappella 4"}}, {"geometry": {"type": "Point", "coordinates": [8.25292397, 45.81609344]}, "type": "Feature", "id": null, "properties": {"province": "Vc", "city": "Varallo", "category": "tematici", "name": "Museo Scaglia (Varallo)", "address": "Piazza San Carlo "}}, {"geometry": {"type": "Point", "coordinates": [7.76637411, 45.04254532]}, "type": "Feature", "id": null, "properties": {"province": "To", "city": "Pino Torinese", "category": "scienza e tecnica", "name": "Parco Astronomico Infini.To \u0096 Museo dello Spazio e Planetario Digitale (Pino Torinese)", "address": "Via Osservatorio 8"}}, {"geometry": {"type": "Point", "coordinates": [0.0, 0.0]}, "type": "Feature", "id": null, "properties": {"province": "Vc", "city": "Guardabosone", "category": "tradizione", "name": "Museo della storia delle tradizioni agricole e degli antichi mestieri (Guardabosone)", "address": " "}}, {"geometry": {"type": "Point", "coordinates": [7.04356623, 45.13544464]}, "type": "Feature", "id": null, "properties": {"province": "To", "city": "Susa", "category": "storia e archeologia", "name": "Museo Civico (Susa)", "address": "Via al Castello 16"}}, {"geometry": {"type": "Point", "coordinates": [7.68021536, 45.07474899]}, "type": "Feature", "id": null, "properties": {"province": "To", "city": "Torino", "category": "arte antica", "name": "MAO - Museo d\u0092Arte Orientale (Torino)", "address": "Via San Domenico 11"}}, {"geometry": {"type": "Point", "coordinates": [7.66491652, 45.04546356]}, "type": "Feature", "id": null, "properties": {"province": "To", "city": "Torino", "category": "arte moderna e contemporanea", "name": "PAV - Parco Arte Vivente (Torino)", "address": "Via Giordano Bruno 31"}}, {"geometry": {"type": "Point", "coordinates": [7.35127783, 44.9340744]}, "type": "Feature", "id": null, "properties": {"province": "To", "city": "Frossasco", "category": "tematici", "name": "Museo Regionale dell'Emigrazione dei Piemontesi nel Mondo (Frossasco)", "address": "Piazza Donatori di Sangue 1"}}, {"geometry": {"type": "Point", "coordinates": [7.87943649, 45.46603394]}, "type": "Feature", "id": null, "properties": {"province": "To", "city": "Ivrea", "category": "scienza e tecnica", "name": "Laboratorio-Museo Tecnologic@mente (Ivrea)", "address": "Piazza San Francesco d'Assisi 4"}}, {"geometry": {"type": "Point", "coordinates": [7.01479959, 45.19116974]}, "type": "Feature", "id": null, "properties": {"province": "To", "city": "Novalesa", "category": "storia e archeologia", "name": "Museo Archeologico dell\u0092Abbazia di Novalesa (Novalesa)", "address": "Borgata S. Pietro 4"}}, {"geometry": {"type": "Point", "coordinates": [7.32761288, 44.88628006]}, "type": "Feature", "id": null, "properties": {"province": "To", "city": "Pinerolo", "category": "storia e archeologia", "name": "Casa del Senato (Pinerolo)", "address": "Largo D\u0092Andrade 2-4"}}, {"geometry": {"type": "Point", "coordinates": [7.61931467, 45.14771652]}, "type": "Feature", "id": null, "properties": {"province": "To", "city": "Venaria Reale", "category": "scienza e tecnica", "name": "Al.Bo, conoscere e giocare con l\u0091albero e il bosco (Venaria Reale)", "address": "via Scodeggio "}}, {"geometry": {"type": "Point", "coordinates": [8.45198822, 45.13723755]}, "type": "Feature", "id": null, "properties": {"province": "Al", "city": "Casale Monferrato", "category": "arte sacra", "name": "\u0093Sacrestia Aperta\u0094  (Casale Monferrato)", "address": "Piazza Duomo "}}, {"geometry": {"type": "Point", "coordinates": [8.48637962, 45.00287247]}, "type": "Feature", "id": null, "properties": {"province": "Al", "city": "Lu", "category": "arte sacra", "name": "Museo San Giacomo (Lu Monferrato)", "address": "Piazza S. Giacomo 1"}}, {"geometry": {"type": "Point", "coordinates": [7.48987532, 44.33011246]}, "type": "Feature", "id": null, "properties": {"province": "Cn", "city": "Borgo San Dalmazzo", "category": "arte sacra", "name": "Museo dell'Abbazia di Pedona (Borgo San Dalmazzo)", "address": "Via Ospedale 2"}}, {"geometry": {"type": "Point", "coordinates": [7.07107687, 44.58915329]}, "type": "Feature", "id": null, "properties": {"province": "Cn", "city": "Casteldelfino", "category": "scienza e tecnica", "name": "Centro Visita Alev\u00e8 (Casteldelfino)", "address": "Via Roma 38"}}, {"geometry": {"type": "Point", "coordinates": [7.6758337, 44.31287003]}, "type": "Feature", "id": null, "properties": {"province": "Cn", "city": "Chiusa Pesio", "category": "tematici", "name": "Collezione fotografica Michele Pellegrino (Chiusa di Pesio)", "address": "Via Sant'Anna 34"}}, {"geometry": {"type": "Point", "coordinates": [7.29771805, 44.31508255]}, "type": "Feature", "id": null, "properties": {"province": "Cn", "city": "Demonte", "category": "tematici", "name": "Palazzo Borelli (Demonte)", "address": "Via Martiri e Caduti della Libert\u00e0 "}}, {"geometry": {"type": "Point", "coordinates": [7.99495983, 44.65296936]}, "type": "Feature", "id": null, "properties": {"province": "Cn", "city": "Grinzane Cavour", "category": "tradizione", "name": "Museo delle Langhe (Grinzane Cavour)", "address": "Via Castello 5"}}, {"geometry": {"type": "Point", "coordinates": [7.36784601, 44.62770844]}, "type": "Feature", "id": null, "properties": {"province": "Cn", "city": "Martiniana Po", "category": "scienza e tecnica", "name": "Centro visita sui Piropi (Martiniana Po)", "address": "Via Roma 25"}}, {"geometry": {"type": "Point", "coordinates": [7.39542103, 44.56258392]}, "type": "Feature", "id": null, "properties": {"province": "Cn", "city": "Venasca", "category": "scienza e tecnica", "name": "La Fabbrica dei Suoni (Venasca)", "address": "Via Marconi 15"}}, {"geometry": {"type": "Point", "coordinates": [7.26807022, 45.43770981]}, "type": "Feature", "id": null, "properties": {"province": "To", "city": "Ceresole Reale", "category": "tematici", "name": "Homo et Ibex - Museo e Centro visitatori del Parco Nazionale del Gran Paradiso (Ceresole Reale)", "address": "Loc. Prese "}}, {"geometry": {"type": "Point", "coordinates": [7.68472147, 45.07341385]}, "type": "Feature", "id": null, "properties": {"province": "To", "city": "Torino", "category": "arte sacra", "name": "Museo Diocesano (Torino)", "address": "Piazza San Giovanni "}}, {"geometry": {"type": "Point", "coordinates": [7.65858221, 45.06782913]}, "type": "Feature", "id": null, "properties": {"province": "To", "city": "Torino", "category": "storia e archeologia", "name": "Museo del Carcere Le Nuove (Torino)", "address": "Via Paolo Borsellino 3"}}, {"geometry": {"type": "Point", "coordinates": [7.42863369, 44.42450714]}, "type": "Feature", "id": null, "properties": {"province": "Cn", "city": "Caraglio", "category": "arte moderna e contemporanea", "name": "Filatoio Rosso (Caraglio)", "address": "Via Matteotti 44"}}, {"geometry": {"type": "Point", "coordinates": [8.04779053, 45.56060791]}, "type": "Feature", "id": null, "properties": {"province": "Bi", "city": "Biella", "category": "ecomusei", "name": "Ecomuseo del Biellese", "address": "Via Quintino Sella 12"}}, {"geometry": {"type": "Point", "coordinates": [7.98495531, 45.01184464]}, "type": "Feature", "id": null, "properties": {"province": "At", "city": "Castelnuovo Don Bosco", "category": "arte sacra", "name": "Casa natale di Don Bosco (Castelnuovo Don Bosco)", "address": "Frazione Morialdo 30"}}, {"geometry": {"type": "Point", "coordinates": [8.86388302, 44.89583588]}, "type": "Feature", "id": null, "properties": {"province": "Al", "city": "Tortona", "category": "arte sacra", "name": "Museo Don Orione (Tortona)", "address": "Via Emilia, 63 63"}}, {"geometry": {"type": "Point", "coordinates": [7.67959642, 45.04977798]}, "type": "Feature", "id": null, "properties": {"province": "To", "city": "Torino", "category": "scienza e tecnica", "name": "Museo di Antropologia criminale \u0093Cesare Lombroso\u0094 dell\u0092Universit\u00e0 degli Studi di Torino (Torino)", "address": "Via Pietro Giuria 15"}}, {"geometry": {"type": "Point", "coordinates": [7.76719046, 45.08058929]}, "type": "Feature", "id": null, "properties": {"province": "To", "city": "Torino", "category": "storia e archeologia", "name": "Reali Tombe di casa Savoia \u0096 Superga  (Torino)", "address": "Strada Basilica di Superga 75"}}, {"geometry": {"type": "Point", "coordinates": [7.78183222, 45.22253799]}, "type": "Feature", "id": null, "properties": {"province": "To", "city": "San Benigno Canavese", "category": "storia e archeologia", "name": "Percorso di visita \"Mille anni di storia\" (San Benigno Canavese)", "address": "Piazza Cardinale delle Lanze "}}, {"geometry": {"type": "Point", "coordinates": [8.21307468, 44.90278625]}, "type": "Feature", "id": null, "properties": {"province": "At", "city": "Asti", "category": "storia e archeologia", "name": "Complesso di San Pietro e Musei Paleontologico e Archeologico (Asti)", "address": "Corso Alfieri 2"}}, {"geometry": {"type": "Point", "coordinates": [8.79181576, 44.6479454]}, "type": "Feature", "id": null, "properties": {"province": "Al", "city": "Bosio", "category": "ecomusei", "name": "Ecomuseo di Cascina Moglioni (Bosio)", "address": "Via Umberto I 31/a"}}, {"geometry": {"type": "Point", "coordinates": [7.04874372, 44.88903809]}, "type": "Feature", "id": null, "properties": {"province": "To", "city": "Prali", "category": "ecomusei", "name": "Scopriminiera \u0096 Ecomuseo regionale delle miniere e della Val Germanasca (Prali)", "address": "Loc. Paola "}}, {"geometry": {"type": "Point", "coordinates": [7.6776104, 44.32460785]}, "type": "Feature", "id": null, "properties": {"province": "Cn", "city": "Chiusa Pesio", "category": "ecomusei", "name": "Ecomuseo dei Certosini nella Valle Pesio", "address": "Piazza Cavour 10"}}, {"geometry": {"type": "Point", "coordinates": [9.05023766, 44.70734024]}, "type": "Feature", "id": null, "properties": {"province": "Al", "city": "Cantalupo Ligure", "category": "ecomusei", "name": "Ecomuseo dei Feudi Imperiali", "address": "Via Umberto I 35"}}, {"geometry": {"type": "Point", "coordinates": [0.0, 0.0]}, "type": "Feature", "id": null, "properties": {"province": "Vb", "city": "Mergozzo", "category": "ecomusei", "name": "Ecomuseo del Granito di Montorfano", "address": "Via Pallanza 2"}}, {"geometry": {"type": "Point", "coordinates": [7.80693483, 44.28736496]}, "type": "Feature", "id": null, "properties": {"province": "Cn", "city": "Frabosa Soprana", "category": "ecomusei", "name": "Ecomuseo del Marmo (Frabosa Soprana)", "address": "Piazza Municipio 5"}}, {"geometry": {"type": "Point", "coordinates": [7.31061363, 44.40065384]}, "type": "Feature", "id": null, "properties": {"province": "Cn", "city": "Monterosso Grana", "category": "ecomusei", "name": "Ecomuseo della \u0093Terra del Castelmagno\u0094", "address": "Frazione San Pietro 89"}}, {"geometry": {"type": "Point", "coordinates": [8.50299168, 44.66185379]}, "type": "Feature", "id": null, "properties": {"province": "Al", "city": "Visone", "category": "ecomusei", "name": "Ecomuseo della Pietra e della Calce (Visone)", "address": "Via Pittavino 9"}}, {"geometry": {"type": "Point", "coordinates": [8.4991951, 46.12717056]}, "type": "Feature", "id": null, "properties": {"province": "Vb", "city": "Malesco", "category": "ecomusei", "name": "Ecomuseo \u0093Ed Leuzierie e di Scherpelit\u0094 (Ecomuseo della Pietra Ollare e degli Scalpellini)", "address": "Via C. Mellerio 54"}}, {"geometry": {"type": "Point", "coordinates": [7.68870449, 45.06469345]}, "type": "Feature", "id": null, "properties": {"province": "To", "city": "Torino", "category": "tematici", "name": "Museo delle Olimpiadi", "address": "Via Giolitti 36"}}, {"geometry": {"type": "Point", "coordinates": [7.9442997, 44.61128998]}, "type": "Feature", "id": null, "properties": {"province": "Cn", "city": "Barolo", "category": "tematici", "name": "WiMu \u0096 Museo del Vino (Barolo)", "address": "Piazza Falletti 1"}}, {"geometry": {"type": "Point", "coordinates": [7.90599489, 45.86880112]}, "type": "Feature", "id": null, "properties": {"province": "Vc", "city": "Alagna Valsesia", "category": "scienza e tecnica", "name": "Centro Visita e Giardino Botanico all\u0092Alpe Fum Bitz (Alagna Valsesia)", "address": "Alpe Fum Bitz "}}, {"geometry": {"type": "Point", "coordinates": [6.93811321, 44.39626312]}, "type": "Feature", "id": null, "properties": {"province": "Cn", "city": "Argentera", "category": "tradizione", "name": "Mizoun del Countraband\u00ecer (Argentera)", "address": "Borgata Ferriere "}}, {"geometry": {"type": "Point", "coordinates": [8.20070267, 44.89943314]}, "type": "Feature", "id": null, "properties": {"province": "At", "city": "Asti", "category": "arte antica", "name": "Museo Civico e Pinacoteca di Palazzo Mazzetti (Asti)", "address": "Corso V. Alfieri 357"}}, {"geometry": {"type": "Point", "coordinates": [7.07094431, 44.59062958]}, "type": "Feature", "id": null, "properties": {"province": "Cn", "city": "Casteldelfino", "category": "arte sacra", "name": "Centro di documentazione sulla religiosit\u00e0 popolare (Casteldelfino)", "address": "Cappella di Sant'Eusebio "}}, {"geometry": {"type": "Point", "coordinates": [7.13281965, 45.46308136]}, "type": "Feature", "id": null, "properties": {"province": "To", "city": "Ceresole Reale", "category": "scienza e tecnica", "name": "Le torbiere d\u0092alta montagna \u0096 Mostra permanente del Parco Nazionale del Gran Paradiso (Ceresole Reale)", "address": "Localit\u00e0 Serr\u00f9 "}}, {"geometry": {"type": "Point", "coordinates": [8.15955257, 45.88968658]}, "type": "Feature", "id": null, "properties": {"province": "Vc", "city": "Fobello", "category": "tematici", "name": "Mostra permanente Vincenzo Lancia (Fobello)", "address": "Via Lancia "}}, {"geometry": {"type": "Point", "coordinates": [7.47943878, 45.27571869]}, "type": "Feature", "id": null, "properties": {"province": "To", "city": "Lanzo Torinese", "category": "tradizione", "name": "Ecomuseo Storia dell\u0092Alpinismo delle Valli di Lanzo (Lanzo Torinese)", "address": "Via Don Bosco 33"}}, {"geometry": {"type": "Point", "coordinates": [7.30341959, 45.45412064]}, "type": "Feature", "id": null, "properties": {"province": "To", "city": "Noasca", "category": "tradizione", "name": "La vecchia scuola di Maison \u0096 Mostra permanente del Parco Nazionale del Gran Paradiso (Noasca)", "address": "Borgata Maison "}}, {"geometry": {"type": "Point", "coordinates": [7.50256538, 45.43320084]}, "type": "Feature", "id": null, "properties": {"province": "To", "city": "Ribordone", "category": "tradizione", "name": "La cultura e le tradizioni religiose - Centro visitatori del Parco Nazionale del Gran Paradiso (Ribordone)", "address": "Santuario di Prascond\u00f9 "}}, {"geometry": {"type": "Point", "coordinates": [7.0785346, 44.33748245]}, "type": "Feature", "id": null, "properties": {"province": "Cn", "city": "Sambuco", "category": "tradizione", "name": "Centro di Documentazione Valle Stura (Sambuco)", "address": "Via Umberto I 50/a"}}, {"geometry": {"type": "Point", "coordinates": [8.66748142, 46.03406906]}, "type": "Feature", "id": null, "properties": {"province": "Vb", "city": "Trarego Viggiona", "category": "scienza e tecnica", "name": "Museo Tattile di Scienze Naturali del Lago e della Montagna (Trarego Viggiona)", "address": "Contrada San Mauro "}}, {"geometry": {"type": "Point", "coordinates": [7.07022905, 44.58964157]}, "type": "Feature", "id": null, "properties": {"province": "Cn", "city": "Casteldelfino", "category": "tradizione", "name": "Spazio Escartons (Casteldelfino)", "address": "Via Roma "}}, {"geometry": {"type": "Point", "coordinates": [8.19790363, 44.90039825]}, "type": "Feature", "id": null, "properties": {"province": "At", "city": "Asti", "category": "arte sacra", "name": "Museo Diocesano (Asti)", "address": "Piazza Cattedrale "}}, {"geometry": {"type": "Point", "coordinates": [7.82958984, 44.38883972]}, "type": "Feature", "id": null, "properties": {"province": "Cn", "city": "Mondov\u00ec", "category": "tematici", "name": "Museo della Ceramica (Mondov\u00ec)", "address": "Piazza Maggiore 1"}}, {"geometry": {"type": "Point", "coordinates": [8.09777737, 44.60647583]}, "type": "Feature", "id": null, "properties": {"province": "Cn", "city": "Lequio Berria", "category": "tematici", "name": "Museo del Pastello Soffice (Lequio Berria)", "address": "via Roma "}}, {"geometry": {"type": "Point", "coordinates": [0.0, 0.0]}, "type": "Feature", "id": null, "properties": {"province": "To", "city": "Grugliasco", "category": "tematici", "name": "Museo Gianduja (Grugliasco)", "address": "Via Tiziano Lanza 31"}}, {"geometry": {"type": "Point", "coordinates": [0.0, 0.0]}, "type": "Feature", "id": null, "properties": {"province": "No", "city": "Novara", "category": "arte moderna e contemporanea", "name": "Galleria d\u0092arte moderna Paolo e Adele Giannoni (Novara)", "address": "Via Fratelli Rosselli 20"}}, {"geometry": {"type": "Point", "coordinates": [0.0, 0.0]}, "type": "Feature", "id": null, "properties": {"province": "Cn", "city": "Saluzzo", "category": "tematici", "name": "Casa Museo di Silvio Pellico (Saluzzo)", "address": "Piazzetta dei Mondagli "}}, {"geometry": {"type": "Point", "coordinates": [7.55217743, 44.39229965]}, "type": "Feature", "id": null, "properties": {"province": "Cn", "city": "Cuneo", "category": "arte sacra", "name": "Museo Diocesano San Sebastiano (Cuneo)", "address": "Contrada Mondov\u00ec "}}, {"geometry": {"type": "Point", "coordinates": [7.35251856, 44.46672058]}, "type": "Feature", "id": null, "properties": {"province": "Cn", "city": "Dronero", "category": "tematici", "name": "Museo Son De Lenga (Dronero)", "address": "Via Val Maria 19"}}, {"geometry": {"type": "Point", "coordinates": [7.82563877, 45.01087952]}, "type": "Feature", "id": null, "properties": {"province": "To", "city": "Chieri", "category": "arte sacra", "name": "Centro Visite Don Bosco (Chieri)", "address": "Via Vittorio Emanuele II 63"}}, {"geometry": {"type": "Point", "coordinates": [7.86948204, 44.98632431]}, "type": "Feature", "id": null, "properties": {"province": "To", "city": "Riva presso Chieri", "category": "tradizione", "name": "Museo del Paesaggio Sonoro (Riva presso Chieri)", "address": "Piazza Parrocchia 4"}}, {"geometry": {"type": "Point", "coordinates": [8.29006004, 46.11549377]}, "type": "Feature", "id": null, "properties": {"province": "Vb", "city": "Domodossola", "category": "scienza e tecnica", "name": "Civico Museo Sempioniano (Domodossola)", "address": "Via Canuto 12"}}, {"geometry": {"type": "Point", "coordinates": [7.67815447, 45.0688591]}, "type": "Feature", "id": null, "properties": {"province": "To", "city": "Torino", "category": "tematici", "name": "Museo del Risparmio (Torino)", "address": "Via San Francesco d\u0092Assisi 8"}}, {"geometry": {"type": "Point", "coordinates": [0.0, 0.0]}, "type": "Feature", "id": null, "properties": {"province": "To", "city": "Torino", "category": "tematici", "name": "Juventus Museum (Torino)", "address": "Via Druento 153/42"}}, {"geometry": {"type": "Point", "coordinates": [7.65179348, 45.04299927]}, "type": "Feature", "id": null, "properties": {"province": "To", "city": "Torino", "category": "tematici", "name": "Museo dello Sport (Torino)", "address": "Corso Sebastopoli ang. C.so Agnelli "}}, {"geometry": {"type": "Point", "coordinates": [7.85951281, 44.65205002]}, "type": "Feature", "id": null, "properties": {"province": "Cn", "city": "Cherasco", "category": "tematici", "name": "Museo della Magia (Cherasco)", "address": "Via Cavour 33/35"}}]}